Fuel Type Code,Station Name,Street Address,Intersection Directions,City,State,ZIP,Plus4,Station Phone,Status Code,Expected Date,Groups With Access Code,Access Days Time,Cards Accepted,BD Blends,NG Fill Type Code,NG PSI,EV Level1 EVSE Num,EV Level2 EVSE Num,EV DC Fast Count,EV Other Info,EV Network,EV Network Web,Geocode Status,Latitude,Longitude,Date Last Confirmed,ID,Updated At,Owner Type Code,Federal Agency ID,Federal Agency Name,Open Date,Hydrogen Status Link,NG Vehicle Class,LPG Primary,E85 Blender Pump,EV Connector Types,Country,Intersection Directions (French),Access Days Time (French),BD Blends (French),Groups With Access Code (French),Hydrogen Is Retail,Access Code,Access Detail Code,Federal Agency Code,Facility Type,CNG Dispenser Num,CNG On-Site Renewable Source,CNG Total Compression Capacity,CNG Storage Capacity,LNG On-Site Renewable Source,E85 Other Ethanol Blends,EV Pricing,EV Pricing (French),LPG Nozzle Types,Hydrogen Pressures,Hydrogen Standards,CNG Fill Type Code,CNG PSI,CNG Vehicle Class,LNG Vehicle Class,EV On-Site Renewable Source,Restricted Access
ELEC,City of Santa Monica - Civic Parking Garage,333 Civic Center Dr,1st floor of parking garage,Santa Monica,CA,90401,,310-458-8516,E,,Public,24 hours daily; pay lot,,,,,,12,2,,Non-Networked,,GPS,34.010528,-118.4898,2020-07-13,38521,2021-06-22 17:36:49 UTC,LG,,,2010-11-15,,,,,CHADEMO J1772,US,,,,Public,,public,,,MUNI_GOV,,,,,,,Free,,,,,,,,,SOLAR,false
ELEC,Antioch Nissan,1831 Auto Center Dr,,Antioch,CA,94509,,925-755-2600,E,,Public - Call ahead,Dealership business hours,,,,,,1,1,,Non-Networked,,200-9,38.007799,-121.832042,2022-02-10,39870,2022-02-10 19:42:29 UTC,P,,,2011-03-15,,,,,CHADEMO J1772 J1772COMBO,US,,,,Public - Appeler à l'avance,,public,CALL,,CAR_DEALER,,,,,,,Free,,,,,,,,,,false
ELEC,Nissan of Bakersfield,2800 Pacheco Rd,,Bakersfield,CA,93313,,661-835-8600,E,,Public - Call ahead,Dealership business hours,,,,,,3,1,,Non-Networked,,200-9,35.310723,-119.035324,2022-05-05,39871,2022-05-05 20:22:04 UTC,P,,,2011-03-15,,,,,CHADEMO J1772 J1772COMBO,US,,,,Public - Appeler à l'avance,,public,CALL,,CAR_DEALER,,,,,,,Free,,,,,,,,,,false
ELEC,Buena Park Nissan,6501 Auto Center Dr,,Buena Park,CA,90621,,714-739-0800,E,,Public - Call ahead,Dealership business hours,,,,,,3,1,,Non-Networked,,200-9,33.865497,-117.995215,2022-02-10,39872,2022-02-10 19:42:29 UTC,P,,,2011-03-15,,,,,CHADEMO J1772 J1772COMBO,US,,,,Public - Appeler à l'avance,,public,CALL,,CAR_DEALER,,,,,,,Free,,,,,,,,,,false
ELEC,Carson Nissan,1505 E 223rd St,,Carson,CA,90745,,310-221-5119,E,,Public - Call ahead,Dealership business hours,,,,,,2,1,,Non-Networked,,200-9,33.824968,-118.245675,2022-02-10,39873,2022-02-10 19:42:29 UTC,P,,,2011-03-15,,,,,CHADEMO J1772 J1772COMBO,US,,,,Public - Appeler à l'avance,,public,CALL,,CAR_DEALER,,,,,,,Free,,,,,,,,,,false
ELEC,Palm Springs Nissan,68177 Kyle Rd,,Cathedral City,CA,92234,,760-328-2828,E,,Public - Call ahead,Dealership business hours,,,,,,1,1,,Non-Networked,,GPS,33.78414,-116.471,2020-06-09,39874,2021-03-11 23:22:17 UTC,P,,,2011-03-15,,,,,CHADEMO J1772,US,,,,Public - Appeler à l'avance,,public,CALL,,CAR_DEALER,,,,,,,Free,,,,,,,,,,false
ELEC,Cerritos Nissan,18707 Studebaker Rd,,Cerritos,CA,90703,,562-402-2277,E,,Public - Call ahead,Dealership business hours,,,,,,1,1,,Non-Networked,,200-9,33.861544,-118.100471,2022-02-10,39875,2022-02-10 19:42:29 UTC,P,,,2011-03-15,,,,,CHADEMO J1772 J1772COMBO,US,,,,Public - Appeler à l'avance,,public,CALL,,CAR_DEALER,,,,,,,Free,,,,,,,,,,false
ELEC,Chico Nissan,575 Manzanita Ave,,Chico,CA,95926,,530-891-1777,E,,Public - Call ahead,Dealership business hours,,,,,,3,1,,Non-Networked,,200-9,39.756332,-121.843715,2022-02-10,39876,2022-02-10 19:42:29 UTC,P,,,2011-03-15,,,,,CHADEMO J1772 J1772COMBO,US,,,,Public - Appeler à l'avance,,public,CALL,,CAR_DEALER,,,,,,,Free,,,,,,,,,,false
ELEC,Puente Hills Nissan,17320 E Gale Ave,,City of Industry,CA,91748,,,E,,Public - Call ahead,Dealership business hours,,,,,,2,1,,Non-Networked,,GPS,33.997621,-117.928216,2022-02-10,39877,2022-02-10 19:42:29 UTC,P,,,2011-03-15,,,,,CHADEMO J1772 J1772COMBO,US,,,,Public - Appeler à l'avance,,public,CALL,,CAR_DEALER,,,,,,,Free,,,,,,,,,,false
ELEC,Nissan of Serramonte,1500 Collins Ave,,Colma,CA,94014,,650-550-7200,E,,Public - Call ahead,Dealership business hours,,,,,,1,1,,Non-Networked,,200-8,37.671267,-122.463541,2020-06-09,39879,2021-03-11 23:22:17 UTC,P,,,2011-03-15,,,,,CHADEMO J1772,US,,,,Public - Appeler à l'avance,,public,CALL,,CAR_DEALER,,,,,,,Free,,,,,,,,,,false
ELEC,Larry H Miller Nissan,2575 Wardlow Rd,,Corona,CA,92882,,951-735-3360,E,,Public - Call ahead,Dealership business hours,,,,,,2,1,,Non-Networked,,200-9,33.88309,-117.615292,2020-06-09,39881,2021-03-11 23:22:17 UTC,P,,,2011-03-15,,,,,CHADEMO J1772,US,,,,Public - Appeler à l'avance,,public,CALL,,CAR_DEALER,,,,,,,Free,,,,,,,,,,false
ELEC,Orange Coast Nissan,2850 Harbor Blvd,,Costa Mesa,CA,92626,,714-681-1738,E,,Public - Call ahead,Dealership business hours,,,,,,2,1,,Non-Networked,,200-9,33.675397,-117.918684,2022-06-14,39882,2022-06-14 16:24:51 UTC,P,,,2011-03-15,,,,,CHADEMO J1772 J1772COMBO,US,,,,Public - Appeler à l'avance,,public,CALL,,CAR_DEALER,,,,,,,Free,,,,,,,,,,false
ELEC,Hanlees Nissan,5009 Chiles Rd,,Davis,CA,95618,,530-231-3000,E,,Public - Call ahead,Dealership business hours,,,,,,1,1,,Non-Networked,,200-9,38.55252,-121.691555,2022-03-07,39883,2022-03-07 19:49:53 UTC,P,,,2011-03-15,,,,,CHADEMO J1772,US,,,,Public - Appeler à l'avance,,public,CALL,,CAR_DEALER,,,,,,,Free,,,,,,,,,,false
ELEC,Downey Nissan,7321 Firestone Blvd,,Downey,CA,90241,,562-334-1090,E,,Public - Call ahead,Dealership business hours,,,,,,4,2,,Non-Networked,,200-8,33.9473,-118.151166,2022-03-07,39884,2022-03-07 19:49:53 UTC,P,,,2011-03-15,,,,,J1772 J1772COMBO,US,,,,Public - Appeler à l'avance,,public,CALL,,CAR_DEALER,,,,,,,Free,,,,,,,,,,false
ELEC,Ross Nissan El Monte,3428 N Peck Rd,,El Monte,CA,91731,,800-859-8445,E,,Public - Call ahead,Dealership business hours,,,,,,2,1,,Non-Networked,,200-9,34.069536,-118.026911,2022-02-10,39887,2022-02-10 19:42:29 UTC,P,,,2011-03-15,,,,,CHADEMO J1772 J1772COMBO,US,,,,Public - Appeler à l'avance,,public,CALL,,CAR_DEALER,,,,,,,Free,,,,,,,,,,false
ELEC,Nissan of Elk Grove,8590 Laguna Grove Dr,,Elk Grove,CA,95757,,916-405-5000,E,,Public - Call ahead,Dealership business hours,,,,,,4,2,,Non-Networked,,200-9,38.402217,-121.385527,2022-02-10,39888,2022-02-10 19:42:29 UTC,P,,,2011-03-15,,,,,CHADEMO J1772,US,,,,Public - Appeler à l'avance,,public,CALL,,CAR_DEALER,,,,,,,Free,,,,,,,,,,false
ELEC,Future Nissan of Folsom,12610 Auto Mall Cir,,Folsom,CA,95630,,916-608-5300,E,,Public - Call ahead,Dealership business hours,,,,,,3,1,,Non-Networked,,GPS,38.634132,-121.204871,2022-02-10,39891,2022-02-10 19:42:29 UTC,P,,,2011-03-15,,,,,CHADEMO J1772 J1772COMBO,US,,,,Public - Appeler à l'avance,,public,CALL,,CAR_DEALER,,,,,,,Free,,,,,,,,,,false
ELEC,Fontana Nissan,16444 S Highland Ave,,Fontana,CA,92336,,909-574-2288,E,,Public - Call ahead,Dealership business hours,,,,,,2,1,,Non-Networked,,200-9,34.135345,-117.445732,2022-03-07,39892,2022-03-07 19:49:53 UTC,P,,,2011-03-15,,,,,CHADEMO J1772 J1772COMBO,US,,,,Public - Appeler à l'avance,,public,CALL,,CAR_DEALER,,,,,,,Free,,,,,,,,,,false
ELEC,Premier Nissan of Fremont,5701 Cushing Pkwy,,Fremont,CA,94538,,510-668-8700,E,,Public - Call ahead,Dealership business hours,,,,,,2,1,,Non-Networked,,GPS,37.489389,-121.9576,2022-03-07,39893,2022-03-07 19:49:53 UTC,P,,,2011-03-15,,,,,CHADEMO J1772,US,,,,Public - Appeler à l'avance,,public,CALL,,CAR_DEALER,,,,,,,Free,,,,,,,,,,false
ELEC,Garden Grove Nissan,9222 Trask Ave,,Garden Grove,CA,92844,,888-720-5391,E,,Public - Call ahead,Dealership business hours,,,,,,2,1,,Non-Networked,,200-9,33.766376,-117.968337,2022-02-10,39895,2022-02-10 19:42:29 UTC,P,,,2011-03-15,,,,,CHADEMO J1772 J1772COMBO,US,,,,Public - Appeler à l'avance,,public,CALL,,CAR_DEALER,,,,,,,Free,,,,,,,,,,false
ELEC,Glendale Nissan,727 S Brand Blvd,,Glendale,CA,91204,,,E,,Public - Call ahead,Dealership business hours; contact 630-469-6100 for more information,,,,,,1,1,,Non-Networked,,200-9,34.137054,-118.25536,2022-03-07,39898,2022-03-07 19:49:53 UTC,P,,,2011-03-15,,,,,CHADEMO J1772 J1772COMBO,US,,,,Public - Appeler à l'avance,,public,CALL,,CAR_DEALER,,,,,,,Free,,,,,,,,,,false
ELEC,Santa Barbara Nissan,425 S Kellogg Ave,,Goleta,CA,93117,,805-967-1130,E,,Public - Call ahead,Dealership business hours,,,,,,3,1,,Non-Networked,,200-9,34.43427,-119.820934,2022-02-10,39899,2022-02-10 19:42:29 UTC,P,,,2011-03-15,,,,,CHADEMO J1772,US,,,,Public - Appeler à l'avance,,public,CALL,,CAR_DEALER,,,,,,,Free,,,,,,,,,,false
ELEC,Hayward Nissan,24644 Mission Blvd,,Hayward,CA,94544,,510-372-2800,E,,Public - Call ahead,Dealership business hours,,,,,,2,1,,Non-Networked,,200-9,37.662305,-122.075178,2022-03-07,39901,2022-03-07 19:49:53 UTC,P,,,2011-03-15,,,,,CHADEMO J1772 J1772COMBO,US,,,,Public - Appeler à l'avance,,public,CALL,,CAR_DEALER,,,,,,,Free,,,,,,,,,,false
ELEC,Surf City Nissan,17331 Beach Blvd,,Huntington Beach,CA,92647,,714-500-6000,E,,Public - Call ahead,Dealership business hours,,,,,,2,1,,Non-Networked,,200-9,33.71069,-117.989861,2022-02-10,39903,2022-02-10 19:42:29 UTC,P,,,2011-03-15,,,,,CHADEMO J1772 J1772COMBO,US,,,,Public - Appeler à l'avance,,public,CALL,,CAR_DEALER,,,,,,,Free,,,,,,,,,,false
ELEC,Nissan of Irvine,32 Auto Center Dr,,Irvine,CA,92618,,949-385-6044,E,,Public - Call ahead,Dealership business hours,,,,,,2,1,,Non-Networked,,200-9,33.632505,-117.723298,2022-02-10,39904,2022-02-10 19:42:29 UTC,P,,,2011-03-15,,,,,CHADEMO J1772 J1772COMBO,US,,,,Public - Appeler à l'avance,,public,CALL,,CAR_DEALER,,,,,,,,,,,,,,,,,false
ELEC,Torre Nissan,79125 Highway 111,,La Quinta,CA,92253,,760-777-8999,E,,Public - Call ahead,Dealership business hours,,,,,,2,1,,Non-Networked,,GPS,33.70711,-116.283712,2022-02-10,39905,2022-02-10 19:42:29 UTC,P,,,2011-03-15,,,,,CHADEMO J1772,US,,,,Public - Appeler à l'avance,,public,CALL,,CAR_DEALER,,,,,,,Free,,,,,,,,,,false
ELEC,Nissan of Downtown Los Angeles,635 W Washington Blvd,,Los Angeles,CA,90015,,213-748-4501,E,,Public - Call ahead,Dealership business hours,,,,,,1,1,,Non-Networked,,200-9,34.035168,-118.273229,2020-06-09,39906,2021-03-11 23:22:17 UTC,P,,,2011-03-15,,,,,CHADEMO J1772,US,,,,Public - Appeler à l'avance,,public,CALL,,CAR_DEALER,,,,,,,Free,,,,,,,,,,false
ELEC,Universal City Nissan,3550 Cahuenga Blvd W,,Los Angeles,CA,90068,,818-769-8100,E,,Public - Call ahead,Dealership business hours,,,,,,2,1,,Non-Networked,,200-9,34.133446,-118.356601,2022-02-10,39907,2022-02-10 19:42:29 UTC,P,,,2011-03-15,,,,,CHADEMO J1772,US,,,,Public - Appeler à l'avance,,public,CALL,,CAR_DEALER,,,,,,,Free,,,,,,,,,,false
ELEC,Metro Nissan of Montclair,9440 Autoplex Dr,,Montclair,CA,91763,,909-625-5575,E,,Public - Call ahead,Dealership business hours,,,,,,1,1,,Non-Networked,,200-9,34.082404,-117.694876,2022-02-10,39912,2022-02-10 19:42:29 UTC,P,,,2019-11-08,,,,,CHADEMO J1772 J1772COMBO,US,,,,Public - Appeler à l'avance,,public,CALL,,CAR_DEALER,,,,,,,Free,,,,,,,,,,false
ELEC,Metro Nissan of Redlands,1665 Industrial Park Ave,,Redlands,CA,92374,,909-793-3377,E,,Public - Call ahead,Dealership business hours,,,,,,3,1,,Non-Networked,,200-9,34.065387,-117.212007,2022-03-07,39913,2022-03-07 19:49:53 UTC,P,,,2011-03-15,,,,,CHADEMO J1772 J1772COMBO,US,,,,Public - Appeler à l'avance,,public,CALL,,CAR_DEALER,,,,,,,Free,,,,,,,,,,false
ELEC,Mossy Nissan - Oceanside,3535 College Blvd,,Oceanside,CA,92056,,760-720-9797,E,,Public - Call ahead,Dealership business hours,,,,,,2,1,,Non-Networked,,200-9,33.181953,-117.298334,2020-06-09,39916,2021-03-11 23:22:17 UTC,P,,,2011-03-15,,,,,CHADEMO J1772,US,,,,Public - Appeler à l'avance,,public,CALL,,CAR_DEALER,,,,,,,Free,,,,,,,,,,false
ELEC,Stadium Nissan,1140 W Katella Ave,,Orange,CA,92867,,714-633-8430,E,,Public - Call ahead,Dealership business hours,,,,,,2,1,,Non-Networked,,200-9,33.80857,-117.864434,2020-06-09,39917,2021-03-11 23:22:17 UTC,P,,,2011-03-15,,,,,CHADEMO J1772,US,,,,Public - Appeler à l'avance,,public,CALL,,CAR_DEALER,,,,,,,Free,,,,,,,,,,false
ELEC,Team Nissan,1801 Auto Center Dr,,Oxnard,CA,93036,,805-485-8787,E,,Public - Call ahead,Dealership business hours,,,,,,1,1,,Non-Networked,,GPS,34.22771,-119.150217,2022-02-10,39918,2022-02-10 19:42:29 UTC,P,,,2011-03-15,,,,,CHADEMO J1772,US,,,,Public - Appeler à l'avance,,public,CALL,,CAR_DEALER,,,,,,,Free,,,,,,,,,,false
ELEC,Antelope Valley Nissan,451 Auto Center Dr,"5th St West and Auto Center Dr; access EVSE via the service drive, located adjacent to the front door",Palmdale,CA,93551,,,E,,Public - Call ahead,24 hours daily; primarily for customer use,,,,,,2,2,,Non-Networked,,GPS,34.591173,-118.138184,2022-03-07,39919,2022-03-07 19:49:53 UTC,P,,,2011-03-15,,,,,CHADEMO J1772,US,,,,Public - Appeler à l'avance,,public,CALL,,CAR_DEALER,,,,,,,Free,,,,,,,,,,false
ELEC,North Bay Nissan,1250 Auto Center Dr,,Petaluma,CA,94952,,707-769-7700,E,,Public - Call ahead,Dealership business hours,,,,,,4,1,,Non-Networked,,200-9,38.267202,-122.665068,2022-02-10,39920,2022-02-10 19:42:29 UTC,P,,,2011-03-15,,,,,CHADEMO J1772 J1772COMBO,US,,,,Public - Appeler à l'avance,,public,CALL,,CAR_DEALER,,,,,,,Free,,,,,,,,,,false
ELEC,Mossy Nissan - Poway,14100 Poway Rd,,Poway,CA,92064,,858-668-3600,E,,Public - Call ahead,Dealership business hours,,,,,,1,1,,Non-Networked,,200-9,32.956772,-117.025943,2020-06-09,39921,2021-03-11 23:22:17 UTC,P,,,2011-03-15,,,,,CHADEMO J1772,US,,,,Public - Appeler à l'avance,,public,CALL,,CAR_DEALER,,,,,,,Free,,,,,,,,,,false
ELEC,Boardwalk Nissan,1 Bair Island Rd,,Redwood City,CA,94063,,650-364-0100,E,,Public - Call ahead,Dealership business hours,,,,,,3,1,,Non-Networked,,200-9,37.495963,-122.227322,2020-06-09,39923,2021-03-11 23:22:17 UTC,P,,,2011-03-15,,,,,CHADEMO J1772,US,,,,Public - Appeler à l'avance,,public,CALL,,CAR_DEALER,,,,,,,Free,,,,,,,,,,false
ELEC,Hanlees Hilltop Nissan,3277 Auto Plaza,,Richmond,CA,94806,,510-222-4900,E,,Public - Call ahead,Dealership business hours,,,,,,1,1,,Non-Networked,,200-9,37.985253,-122.32124,2022-03-07,39925,2022-03-07 19:49:53 UTC,P,,,2011-03-15,,,,,CHADEMO J1772 J1772COMBO,US,,,,Public - Appeler à l'avance,,public,CALL,,CAR_DEALER,,,,,,,Free,,,,,,,,,,false
ELEC,Riverside Nissan,8330 Indiana Ave,,Riverside,CA,92504,,,E,,Public - Call ahead,Dealership business hours,,,,,,2,1,,Non-Networked,,GPS,33.925469,-117.419673,2022-03-07,39927,2022-03-07 19:49:53 UTC,P,,,2011-03-15,,,,,CHADEMO J1772 J1772COMBO,US,,,,Public - Appeler à l'avance,,public,CALL,,CAR_DEALER,,,,,,,Free,,,,,,,,,,false
ELEC,Future Nissan of Roseville,600 Automall Dr,,Roseville,CA,95661,,,E,,Public - Call ahead,Dealership business hours; 916-969-5700,,,,,,1,1,,Non-Networked,,GPS,38.752198,-121.256452,2022-02-10,39928,2022-02-10 19:42:29 UTC,P,,,2011-03-15,,,,,CHADEMO J1772 J1772COMBO,US,,,,Public - Appeler à l'avance,,public,CALL,,CAR_DEALER,,,,,,,Free,,,,,,,,,,false
ELEC,Nissan of Sacramento,2820 Auburn Blvd,,Sacramento,CA,95821,,,E,,Public - Call ahead,Dealership business hours; 916-488-5400,,,,,,1,1,,Non-Networked,,GPS,38.631393,-121.396604,2022-02-10,39929,2022-02-10 19:42:29 UTC,P,,,2016-06-01,,,,,CHADEMO J1772 J1772COMBO,US,,,,Public - Appeler à l'avance,,public,CALL,,CAR_DEALER,,,,,,,Free,,,,,,,,,,false
ELEC,MY Nissan,222 Auto Center Cir,,Salinas,CA,93907,,831-444-8888,E,,Public - Call ahead,Dealership business hours,,,,,,2,1,,Non-Networked,,GPS,36.720023,-121.662519,2022-02-10,39930,2022-02-10 19:42:29 UTC,P,,,2011-03-15,,,,,CHADEMO J1772,US,,,,Public - Appeler à l'avance,,public,CALL,,CAR_DEALER,,,,,,,Free,,,,,,,,,,false
ELEC,Larry H Miller Nissan of San Bernardino,735 Showcase Dr S,,San Bernardino,CA,92408,,,E,,Public - Call ahead,Dealership business hours; contact 909-885-3883 for more information,,,,,,1,1,,Non-Networked,,GPS,34.074378,-117.298,2022-02-10,39931,2022-02-10 19:42:29 UTC,P,,,2011-03-15,,,,,CHADEMO J1772,US,,,,Public - Appeler à l'avance,,public,CALL,,CAR_DEALER,,,,,,,Free,,,,,,,,,,false
ELEC,Mossy Nissan - Kearny Mesa,8118 Clairemont Mesa Blvd,,San Diego,CA,92111,,858-565-4411,E,,Public - Call ahead,Dealership business hours,,,,,,1,1,,Non-Networked,,200-9,32.833179,-117.147384,2020-06-09,39932,2021-03-11 23:22:17 UTC,P,,,2011-03-15,,,,,CHADEMO J1772,US,,,,Public - Appeler à l'avance,,public,CALL,,CAR_DEALER,,,,,,,Free,,,,,,,,,,false
ELEC,Pacific Nissan,4433 Mission Bay Dr,,San Diego,CA,92109,,858-581-3200,E,,Public - Call ahead,Dealership business hours,,,,,,1,1,,Non-Networked,,200-9,32.802475,-117.215269,2020-06-09,39933,2021-03-11 23:22:17 UTC,P,,,2011-04-01,,,,,CHADEMO J1772,US,,,,Public - Appeler à l'avance,,public,CALL,,CAR_DEALER,,,,,,,Free,,,,,,,,,,false
ELEC,Premier Nissan,1120 W Capitol Expy,,San Jose,CA,95136,,408-978-1234,E,,Public - Call ahead,Dealership business hours,,,,,,1,2,,Non-Networked,,GPS,37.275144,-121.877656,2020-06-09,39935,2021-03-11 23:22:17 UTC,P,,,2011-03-15,,,,,CHADEMO J1772 J1772COMBO,US,,,,Public - Appeler à l'avance,,public,CALL,,CAR_DEALER,,,,,,,Free,,,,,,,,,,false
ELEC,Nissan of San Juan Capistrano,33633 Camino Capistrano,,San Juan Capistrano,CA,92675,,888-718-2419,E,,Public - Call ahead,Dealership business hours,,,,,,2,1,,Non-Networked,,200-9,33.47443,-117.676142,2022-02-10,39936,2022-02-10 19:42:29 UTC,P,,,2011-03-15,,,,,CHADEMO J1772,US,,,,Public - Appeler à l'avance,,public,CALL,,CAR_DEALER,,,,,,,Free,,,,,,,,,,false
ELEC,San Leandro Nissan,1152 Marina Blvd,,San Leandro,CA,94577,,510-347-4000,E,,Public - Call ahead,Dealership business hours,,,,,,2,1,,Non-Networked,,GPS,37.712609,-122.162746,2022-02-10,39937,2022-02-10 19:42:29 UTC,P,,,2011-03-15,,,,,CHADEMO J1772 J1772COMBO,US,,,,Public - Appeler à l'avance,,public,CALL,,CAR_DEALER,,,,,,,Free,,,,,,,,,,false
ELEC,Coast Nissan,12150 Los Osos Valley Rd,,San Luis Obispo,CA,93405,,805-543-4423,E,,Public - Call ahead,Dealership business hours,,,,,,4,1,,Non-Networked,,GPS,35.25062,-120.68455,2022-03-07,39938,2022-03-07 19:49:53 UTC,P,,,2011-03-15,,,,,CHADEMO J1772,US,,,,Public - Appeler à l'avance,,public,CALL,,CAR_DEALER,,,,,,,Free,,,,,,,,,,false
ELEC,Stevens Creek Nissan,4855 Stevens Creek Blvd,Located on the southeast corner of building,Santa Clara,CA,95051,,408-983-5900,E,,Public - Call ahead,Dealership business hours,,,,,,1,2,,Non-Networked,,200-9,37.323569,-121.988027,2022-02-10,39939,2022-02-10 19:42:29 UTC,P,,,2011-03-15,,,,,CHADEMO J1772 J1772COMBO,US,,,,Public - Appeler à l'avance,,public,CALL,,CAR_DEALER,,,,,,,Free,,,,,,,,,,false
ELEC,Jim Bone Nissan,1275 Santa Rosa Ave,,Santa Rosa,CA,95404,,707-545-7050,E,,Public - Call ahead,Dealership business hours,,,,,,4,1,,Non-Networked,,200-9,38.425537,-122.714089,2022-03-07,39943,2022-03-07 19:49:53 UTC,P,,,2011-03-15,,,,,CHADEMO J1772 J1772COMBO,US,,,,Public - Appeler à l'avance,,public,CALL,,CAR_DEALER,,,,,,,Free,,,,,,,,,,false
ELEC,Cardinale Nissan,1661 Del Monte Blvd,,Seaside,CA,93955,,831-393-0600,E,,Public - Call ahead,Dealership business hours,,,,,,2,1,,Non-Networked,,GPS,36.611189,-121.849899,2022-02-10,39944,2022-02-10 19:42:29 UTC,P,,,2011-03-15,,,,,CHADEMO J1772,US,,,,Public - Appeler à l'avance,,public,CALL,,CAR_DEALER,,,,,,,Free,,,,,,,,,,false
ELEC,Nissan of Van Nuys,5425 Van Nuys Blvd,,Sherman Oaks,CA,91401,,818-787-8400,E,,Public - Call ahead,Dealership business hours,,,,,,1,1,,Non-Networked,,200-9,34.168824,-118.449059,2022-02-10,39945,2022-02-10 19:42:29 UTC,P,,,2014-04-22,,,,,CHADEMO J1772 J1772COMBO,US,,,,Public - Appeler à l'avance,,public,CALL,,CAR_DEALER,,,,,,,Free,,,,,,,,,,false
ELEC,First Nissan,2325 1st St,,Simi Valley,CA,93065,,805-526-9700,E,,Public - Call ahead,Dealership business hours,,,,,,1,1,,Non-Networked,,200-8,34.277324,-118.778957,2022-02-10,39947,2022-02-10 19:42:29 UTC,P,,,2011-03-15,,,,,CHADEMO J1772 J1772COMBO,US,,,,Public - Appeler à l'avance,,public,CALL,,CAR_DEALER,,,,,,,Free,,,,,,,,,,false
ELEC,Nissan of Stockton,3077 E Hammer Ln,,Stockton,CA,95212,,209-956-6500,E,,Public - Call ahead,Dealership business hours,,,,,,2,1,,Non-Networked,,200-9,38.022022,-121.275339,2022-03-07,39948,2022-03-07 19:49:53 UTC,P,,,2011-03-15,,,,,CHADEMO J1772,US,,,,Public - Appeler à l'avance,,public,CALL,,CAR_DEALER,,,,,,,Free,,,,,,,,,,false
ELEC,Temecula Nissan,41895 Motor Car Pkwy,,Temecula,CA,92591,,951-676-6601,E,,Public - Call ahead,Dealership business hours,,,,,,2,1,,Non-Networked,,200-9,33.516768,-117.155039,2022-02-10,39949,2022-02-10 19:42:29 UTC,P,,,2011-03-15,,,,,CHADEMO J1772,US,,,,Public - Appeler à l'avance,,public,CALL,,CAR_DEALER,,,,,,,Free,,,,,,,,,,false
ELEC,Nissan of Tustin,30 Auto Center Dr,,Tustin,CA,92782,,714-669-8282,E,,Public - Call ahead,Dealership business hours,,,,,,1,1,,Non-Networked,,200-9,33.72484,-117.799302,2022-02-10,39952,2022-02-10 19:42:29 UTC,P,,,2011-03-15,,,,,CHADEMO J1772 J1772COMBO,US,,,,Public - Appeler à l'avance,,public,CALL,,CAR_DEALER,,,,,,,,,,,,,,,,,false
ELEC,Nissan of Visalia,830 S Ben Maddox Way,,Visalia,CA,93292,,559-734-3333,E,,Public - Call ahead,Dealership business hours,,,,,,1,1,,Non-Networked,,200-9,36.32327,-119.27569,2022-03-07,39957,2022-03-07 19:49:53 UTC,P,,,2011-03-15,,,,,CHADEMO J1772 J1772COMBO,US,,,,Public - Appeler à l'avance,,public,CALL,,CAR_DEALER,,,,,,,Free,,,,,,,,,,false
ELEC,West Covina Nissan,205 N Citrus St,,West Covina,CA,91791,,626-732-1000,E,,Public - Call ahead,Dealership business hours,,,,,,1,1,,Non-Networked,,200-9,34.074227,-117.890899,2022-02-10,39959,2022-02-10 19:42:29 UTC,P,,,2011-03-15,,,,,CHADEMO J1772,US,,,,Public - Appeler à l'avance,,public,CALL,,CAR_DEALER,,,,,,,Free,,,,,,,,,,false
ELEC,Dublin Nissan,6450 Dublin Ct,,Dublin,CA,94568,,925-452-8000,E,,Public - Call ahead,Dealership business hours,,,,,,4,1,,Non-Networked,,GPS,37.702828,-121.911087,2022-02-10,46721,2022-02-10 19:42:29 UTC,P,,,2012-01-31,,,,,CHADEMO J1772,US,,,,Public - Appeler à l'avance,,public,CALL,,CAR_DEALER,,,,,,,Free,,,,,,,,,,false
ELEC,Momentum Nissan,2545 Auto Mall Pkwy,,Fairfield,CA,94533,,707-402-3200,E,,Public - Call ahead,Dealership business hours,,,,,,2,1,,Non-Networked,,200-9,38.244614,-122.079181,2020-06-09,46724,2021-03-11 23:22:17 UTC,P,,,2012-01-31,,,,,CHADEMO J1772 J1772COMBO,US,,,,Public - Appeler à l'avance,,public,CALL,,CAR_DEALER,,,,,,,Free,,,,,,,,,,false
ELEC,Empire Nissan,1377 Kettering Loop,,Ontario,CA,91761,,909-390-9977,E,,Public - Call ahead,Dealership business hours,,,,,,1,1,,Non-Networked,,200-9,34.049006,-117.547161,2022-02-10,46743,2022-02-10 19:42:29 UTC,P,,,2012-01-31,,,,,CHADEMO J1772 J1772COMBO,US,,,,Public - Appeler à l'avance,,public,CALL,,CAR_DEALER,,,,,,,Free,,,,,,,,,,false
ELEC,Bella Vista Road Park & Ride Lot,782 Davis Ct,Located at the intersection of Davis Ct and Hume Way,Vacaville,CA,95687,,707-449-5424,E,,Public,24 hours daily; Drivers must bring their own J1772 cordset for Level 1 charging,,,,,3,4,1,1 SP Inductive,Non-Networked,,GPS,38.34962,-121.987,2021-07-14,48838,2022-02-10 21:00:18 UTC,LG,,,2005-07-15,,,,,CHADEMO J1772 NEMA520 TESLA,US,,,,Public,,public,,,PARKING_LOT,,,,,,,Free,,,,,,,,,,false
ELEC,Winner Chevrolet,1624 S Canyon Way,,Colfax,CA,95713,,530-349-4147,E,,Public,24 hours daily,,,,,,2,1,,Non-Networked,,GPS,39.084259,-120.956,2022-01-10,49255,2022-02-10 19:42:29 UTC,P,,,2012-08-28,,,,,J1772 J1772COMBO,US,,,,Public,,public,,,CAR_DEALER,,,,,,,Free,,,,,,,,,,false
ELEC,University of California Los Angeles - Parking Structure 4,221 Westwood Plaza,"Located in permit parking area, east side of parking structure",Los Angeles,CA,90077,,,E,,Public,"7am-5pm M-Th, 7am-12pm F, 8am-1pm Sat; permit required for use",,,,,,,1,,Non-Networked,,GPS,34.072975,-118.444801,2022-08-10,60125,2022-08-10 13:32:10 UTC,SG,,,2014-01-01,,,,,CHADEMO,US,,,,Public,,public,,,COLLEGE_CAMPUS,,,,,,,Free,,,,,,,,,,false
ELEC,California State University - Fresno,5010 N Woodrow Ave,Located at in Lot PS2 at N Woodrow Avenue and Matoian Way on the west side of the Save-Mart center,Fresno,CA,93710,,559-278-2950,E,,Public,Lot business hours; pay lot,,,,,,4,2,,Non-Networked,,GPS,36.810694,-119.741239,2022-01-10,61815,2022-02-10 19:42:29 UTC,P,,,2015-05-01,,,,,CHADEMO J1772,US,,,,Public,,public,,,COLLEGE_CAMPUS,,,,,,,$1 per hour,,,,,,,,,,false
ELEC,Department of Health Services Administration,313 N Figueroa,Located in Lot 29. Enter on N Figueroa.,Los Angeles,CA,90012,,213-972-7211  323-267-2023,E,,Public,"Garage business hours; pay lot; keypad activated, instructions on EVSE",,,,,,40,3,,POWERFLEX,https://www.powerflex.com,GPS,34.060148,-118.250747,2022-08-10,63052,2022-08-10 13:32:10 UTC,LG,,,2014-08-01,,,,,CHADEMO J1772,US,,,,Public,,public,,,PAY_GARAGE,,,,,,,$0.30 per kWh; $0.45 per kWh from 4pm-9pm,,,,,,,,,,false
ELEC,Greenwood Ridge Vineyards,5501 Highway 128,,Philo,CA,95466,,707-895-2002,E,,Public,Vineyard business hours; for guest use only; see front desk for access,,,,,,1,1,,Non-Networked,,200-9,39.0979,-123.484338,2020-08-05,63730,2022-04-28 20:01:31 UTC,P,,,2014-10-10,,,,,CHADEMO J1772,US,,,,Public,,public,,,BREWERY_DISTILLERY_WINERY,,,,,,,Free,,,,,,,,,,true
ELEC,Stonestown Galleria,3251 20th Ave,Located near the Trader Joes in the underground parking garage,San Francisco,CA,94132,,415-759-2626,E,,Public,6am-12am daily,,,,,,2,1,,Volta,https://voltacharging.com/,GPS,37.727859,-122.476309,2022-05-05,63881,2022-05-05 20:22:04 UTC,P,,,2014-08-01,,,,,CHADEMO J1772 J1772COMBO,US,,,,Public,,public,,,SHOPPING_MALL,,,,,,,Free,,,,,,,,,,false
ELEC,Chase Chevrolet,6441 Holman Rd,,Stockton,CA,95212,,877-643-3127,E,,Public - Call ahead,Dealership business hours; for Chevrolet vehicle use only,,,,,,,1,,Non-Networked,,200-9,38.018189,-121.271691,2022-08-10,68393,2022-08-10 13:32:10 UTC,P,,,2019-04-30,,,,,J1772COMBO,US,,,,Public - Appeler à l'avance,,public,CALL,,CAR_DEALER,,,,,,,Free,,,,,,,,,,true
ELEC,Castaic Lake RV Park,31540 Ridge Route Rd,,Castaic,CA,91384,,661-257-3340,E,,Public,24 hours daily; Accepts EVRUS Card,,,,,,1,1,,Non-Networked,,200-8,34.491866,-118.616811,2021-10-12,69973,2022-02-10 19:42:29 UTC,P,,,2016-06-29,,,,,CHADEMO J1772,US,,,,Public,,public,,,RV_PARK,,,,,,,,,,,,,,,,,false
ELEC,City of Encinitas - Town Hall Overflow Lot,505 S Vulcan Ave,"East of S. Vulcan Avenue, south of East D Street, north of East E Street and west of Cornish Drive",Encinitas,CA,92024,,760-633-2600,E,,Public,24 hours daily,,,,,,,10,,Non-Networked,,200-9,33.045626,-117.291461,2022-04-06,69981,2022-04-06 14:08:04 UTC,LG,,,2021-06-08,,,,,CHADEMO,US,,,,Public,,public,,,MUNI_GOV,,,,,,,,,,,,,,,,,false
ELEC,Bayside Business Park,46714 Fremont Blvd,,Fremont,CA,94538,,510-894-6030  510-661-4000,E,,Public,24 hours daily,,,,,,,4,,Non-Networked,,GPS,37.479817,-121.944856,2020-09-03,69986,2021-11-14 21:24:24 UTC,P,,,2016-01-01,,,,,CHADEMO J1772COMBO,US,,,,Public,,public,,,OFFICE_BLDG,,,,,,,,,,,,,,,,,false
ELEC,The Outlets at Orange,20 City Blvd W,Located on the north side by Dave and Busters and on the south side,Orange,CA,92868,,714-769-4001,E,,Public,24 hours daily,,,,,,1,4,1 LP Inductive,Non-Networked,,GPS,33.784803,-117.893592,2021-12-09,70875,2022-02-10 19:42:29 UTC,P,,,2012-05-10,,,,,CHADEMO J1772 J1772COMBO,US,,,,Public,,public,,,SHOPPING_MALL,,,,,,,,,,,,,,,,,false
ELEC,LADWP - Van Nuys Payment Center,6550 Van Nuys Blvd,,Los Angeles,CA,91405,,800-342-5397,E,,Public,9am-5pm M-F,,,,,,,2,,Non-Networked,,GPS,34.18993277467182,-118.4481874,2021-07-14,76673,2022-07-18 11:36:50 UTC,T,,,2016-02-01,,,,,CHADEMO J1772COMBO,US,,,,Public,,public,,,UTILITY,,,,,,,Free,,,,,,,,,,false
ELEC,Alma Street Parking,355 Alma St,,Palo Alto,CA,94301,,650-324-3121,E,,Public,24 hours daily; 2 hours max,,,,,,,1,,Non-Networked,,200-9,37.444686,-122.165349,2021-12-09,76699,2022-02-10 19:42:29 UTC,P,,,2016-03-01,,,,,CHADEMO,US,,,,Public,,public,,,STREET_PARKING,,,,,,,Free,,,,,,,,,,false
ELEC,University of Southern California,357 W 35th St,Located in Lot 6,Los Angeles,CA,90007,,213-740-3575,E,,Public,"Faculty, staff, and student use only",,,,,,,1,,Non-Networked,,200-8,34.019032,-118.277869,2021-10-12,76704,2022-02-10 19:42:29 UTC,P,,,2016-01-01,,,,,CHADEMO,US,,,,Public,,public,,,COLLEGE_CAMPUS,,,,,,,Free,,,,,,,,,,true
ELEC,LADWP - Joint Service Center,1230 W 3rd St,,Los Angeles,CA,90017,,,E,,Public,24 hours daily,,,,,,,1,,Non-Networked,,200-9,34.057008,-118.259212,2021-07-14,76705,2022-07-18 11:36:50 UTC,T,,,2016-03-01,,,,,CHADEMO,US,,,,Public,,public,,,UTILITY,,,,,,,Free,,,,,,,,,,false
ELEC,Quality Inn,1010 E Prosperity Ave,,Tulare,CA,93274,,877-676-6266  559-686-3432,E,,Public,24 hours daily,A Cash Checks D M V,,,,,,1,,Non-Networked,,GPS,36.225598,-119.333601,2021-12-09,77561,2022-02-10 19:42:29 UTC,P,,,2016-06-15,,,,,CHADEMO,US,,,,Public,,public,,,HOTEL,,,,,,,Minimum payment of $5; Maximum payment of $15; Maximum session time of 1 hour,,,,,,,,,,false
ELEC,Days Inn,14684 Aloma St,,Lost Hills,CA,93249,,661-214-3739,E,,Public,24 hours daily; for guest use only,A Cash Checks D M V,,,,,,1,,Non-Networked,,200-9,35.617189,-119.656363,2021-12-09,78370,2022-02-10 19:42:29 UTC,P,,,2016-09-01,,,,,CHADEMO,US,,,,Public,,public,,,HOTEL,,,,,,,Minimum payment of $5; Maximum payment of $15; Maximum session time of 1 hour,,,,,,,,,,true
ELEC,LADWP - Crenshaw,4030 Crenshaw Blvd,,Los Angeles,CA,90012,,800-342-5397,E,,Public,24 hours daily,,,,,,16,2,,Non-Networked,,GPS,34.01223,-118.334323,2022-08-10,78834,2022-08-10 13:32:10 UTC,LG,,,1999-10-15,,,,,CHADEMO J1772 J1772COMBO,US,,,,Public,,public,,,UTILITY,,,,,,,Free,,,,,,,,,,false
ELEC,SEVO SunStation,1624 Dell Ave,,Campbell,CA,95008,,650-701-7247,E,,Public,8am-6pm daily; register with Paired Power for access,,,,,,,6,,Non-Networked,,GPS,37.262755,-121.956546,2022-08-10,82709,2022-08-10 13:32:10 UTC,P,,,2017-02-17,,,,,CHADEMO J1772COMBO,US,,,,Public,,public,,,OFFICE_BLDG,,,,,,,Free,,,,,,,,,SOLAR,false
ELEC,Ames Visitor Center,8 Clark Rd,,Moffett Field,CA,94035,,,E,,Public - Credit card at all times,24 hours daily,A D M V,,,,,,8,,Non-Networked,,GPS,37.409389,-122.063444,2021-02-22,85628,2021-03-11 23:22:17 UTC,FG,22,National Aeronautics and Space Administration,2017-06-01,,,,,CHADEMO J1772COMBO,US,,,,Public - Carte de crédit en tout temps,,public,CREDIT_CARD_ALWAYS,NASA,FED_GOV,,,,,,,$0.25 per minute; $0.20 per minute for NASA employees,,,,,,,,,,false
ELEC,Nissan of South Bay,20550 Hawthorne Blvd,,Torrance,CA,90503,,310-694-5433,E,,Public - Call ahead,Dealership business hours,,,,,,2,1,,Non-Networked,,200-8,33.844065,-118.353633,2020-06-09,85958,2021-03-11 23:22:17 UTC,P,,,2017-03-01,,,,,CHADEMO J1772,US,,,,Public - Appeler à l'avance,,public,CALL,,CAR_DEALER,,,,,,,Free,,,,,,,,,,false
ELEC,Whole Foods Market,2732 Augustine Dr,Suite 1600,Santa Clara,CA,95054,,949-720-3194,E,,Public,24 hours daily,,,,,,1,1,,Non-Networked,,200-9,37.381345,-121.975739,2022-08-10,88425,2022-08-10 13:32:10 UTC,P,,,2017-11-01,,,,,CHADEMO J1772 J1772COMBO,US,,,,Public,,public,,,GROCERY,,,,,,,,,,,,,,,,,false
ELEC,Los Altos High School,201 Almond Ave,,Los Altos,CA,94022,,650-479-7359,E,,Public,24 hours daily,,,,,,26,1,,Non-Networked,,GPS,37.385746,-122.109849,2020-08-05,94727,2022-02-24 19:57:48 UTC,P,,,2018-03-16,,,,,CHADEMO J1772 J1772COMBO,US,,,,Public,,public,,,SCHOOL,,,,,,,$0.18 per kWh,,,,,,,,,,false
ELEC,Costco,7095 Marketplace Dr,,Goleta,CA,93117,,866-816-7584,E,,Public,24 hours daily,,,,,,,1,,EV Connect,http://evconnect.com/,GPS,34.4284,-119.875212,2020-04-08,94752,2021-03-11 23:22:17 UTC,P,,,2015-12-15,,,,,CHADEMO J1772COMBO,US,,,,Public,,public,,,SHOPPING_CENTER,,,,,,,,,,,,,,,,,false
ELEC,Efficient Drivetrains,1181 Cadillac Ct,,Milpitas,CA,95035,,408-624-1231,E,,Public,Office business hours; for employee and guest use only,,,,,,8,1,,Non-Networked,,200-9,37.445272,-121.919803,2020-04-08,94768,2022-04-28 20:01:31 UTC,P,,,2017-03-01,,,,,CHADEMO J1772 J1772COMBO,US,,,,Public,,public,,,OFFICE_BLDG,,,,,,,,,,,,,,,,,true
ELEC,City of Palmdale - Development Services,38250 Sierra Hwy,,Palmdale,CA,93550,,866-816-7584,E,,Public,24 hours daily,,,,,,2,1,,EV Connect,http://evconnect.com/,GPS,34.576959,-118.115802,2020-10-09,94777,2021-03-11 23:22:17 UTC,LG,,,2014-12-02,,,,,CHADEMO J1772 J1772COMBO,US,,,,Public,,public,,,MUNI_GOV,,,,,,,,,,,,,,,,,false
ELEC,City of Azusa 1,331 N Citrus ave,,azusa,CA,91702,,855-900-7584,E,,Public,24 hours daily,,,,,,,2,,Greenlots,http://greenlots.com/,GPS,34.127418,-117.890362,2022-09-09,99076,2022-09-09 01:16:39 UTC,,,,2016-01-01,,,,,CHADEMO J1772COMBO,US,,,,Public,,public,,,,,,,,,,,,,,,,,,,,
ELEC,Riverside City Hall,3900 N Main St,,Riverside,CA,92522,,855-900-7584,E,,Public,24 hours daily,,,,,,,1,,Greenlots,http://greenlots.com/,GPS,33.980562,-117.37556,2022-09-09,99077,2022-09-09 01:16:39 UTC,,,,2018-06-14,,,,,CHADEMO J1772COMBO,US,,,,Public,,public,,,,,,,,,,,,,,,,,,,,
ELEC,Banning,2140 W. Ramsey Street,,Banning,CA,92220,,855-900-7584,E,,Public,24 hours daily,,,,,,,2,,Greenlots,http://greenlots.com/,GPS,33.924926,-116.899774,2022-09-09,99127,2022-09-09 01:16:47 UTC,,,,2015-07-01,,,,,CHADEMO J1772COMBO,US,,,,Public,,public,,,,,,,,,,,,,,,,,,,,
ELEC,Lakeside Shopping Center,301 N Pass Ave,,Burbank,CA,91505,,855-900-7584,E,,Public,24 hours daily,,,,,,,2,,Greenlots,http://greenlots.com/,GPS,34.155494,-118.345929,2022-09-09,99132,2022-09-09 01:16:47 UTC,,,,2016-06-15,,,,,CHADEMO J1772COMBO,US,,,,Public,,public,,,,,,,,,,,,,,,,,,,,
ELEC,Sacramento Valley Station,401 I St,,Sacramento,CA,95814,,855-900-7584,E,,Public,24 hours daily,,,,,,,2,,Greenlots,http://greenlots.com/,GPS,38.58442,-121.501873,2022-09-09,99139,2022-09-09 01:16:47 UTC,,,,2017-04-01,,,,,CHADEMO J1772COMBO,US,,,,Public,,public,,,,,,,,,,,,,,,,,,,,
ELEC,Sacramento Food Coop,2820 R Street,,Sacramento,CA,95816,,855-900-7584,E,,Public,24 hours daily,,,,,,1,1,,Greenlots,http://greenlots.com/,200-9,38.564634,-121.472016,2022-09-09,99165,2022-09-09 01:16:48 UTC,,,,2016-08-15,,,,,CHADEMO J1772 J1772COMBO,US,,,,Public,,public,,,,,,,,,,,,,,,,,,,,
ELEC,Nugget Market -Elk Grove,7101 Elk Grove Blvd,,Elk Grove,CA,95758,,855-900-7584,E,,Public,24 hours daily,,,,,,2,2,,Greenlots,http://greenlots.com/,200-9,38.409946,-121.420577,2022-09-09,99176,2022-09-09 01:16:49 UTC,,,,2017-05-01,,,,,CHADEMO J1772 J1772COMBO,US,,,,Public,,public,,,,,,,,,,,,,,,,,,,,
ELEC,Intel HQ Santa Clara,2200 Mission College Boulevard,,Santa Clara,CA,95052,,855-900-7584,E,,Public,24 hours daily,,,,,,1,1,,Greenlots,http://greenlots.com/,200-9,37.388501,-121.96457,2022-09-09,99226,2022-09-09 01:16:51 UTC,,,,2018-06-14,,,,,CHADEMO J1772 J1772COMBO,US,,,,Public,,public,,,,,,,,,,,,,,,,,,,,
ELEC,Santa Clarita Metrolink Station,22122 Soledad Canyon Rd,In Metrolink station parking lot south west side near train tracks and swap meet east entry,Santa Clarita,CA,91351,,866-816-7584  661-294-1287,E,,Public,24 hours daily,,,,,,,1,,EV Connect,http://evconnect.com/,GPS,34.415081,-118.524156,2020-04-08,99714,2021-03-11 23:22:17 UTC,P,,,2018-06-01,,,,,CHADEMO J1772COMBO,US,,,,Public,,public,,,PARKING_LOT,,,,,,,$0.25 per kWh,,,,,,,,,,false
ELEC,Lazy Acres - Hermosa Beach,2510 Pacific Coast Highway,,Hermosa Beach,CA,90254,,877-455-3833,E,,Public - Card key at all times,24 hours daily,,,,,,2,2,,eVgo Network,https://www.evgo.com/,GPS,33.872054,-118.394586,2022-09-09,104403,2022-09-09 01:14:21 UTC,,,,2018-10-27,,,,,CHADEMO J1772 J1772COMBO,US,,,,Public - Carte-clé en tout temps,,public,KEY_ALWAYS,,,,,,,,,,,,,,,,,,,
ELEC,Hollywood Burbank Airport,2627 N Hollywood Way,,Burbank,CA,91505,,855-900-7584,E,,Public,24 hours daily,,,,,,,1,,Greenlots,http://greenlots.com/,GPS,34.196063,-118.352672,2022-09-09,105122,2022-09-09 01:15:49 UTC,,,,2018-12-06,,,,,CHADEMO J1772COMBO,US,,,,Public,,public,,,,,,,,,,,,,,,,,,,,
ELEC,Joint Service Center,1230 W. 3rd St,,Los Angeles,CA,90017,,855-900-7584,E,,Public,24 hours daily,,,,,,,1,,Greenlots,http://greenlots.com/,GPS,34.056743,-118.259166,2022-09-09,105489,2022-09-09 01:15:49 UTC,,,,2018-12-26,,,,,CHADEMO J1772COMBO,US,,,,Public,,public,,,,,,,,,,,,,,,,,,,,
ELEC,Jessup Auto Plaza,68-111 E Palm Canyon Dr,,Cathedral City,CA,92234,,760-328-9999,E,,Public,24 hours daily,,,,,,2,4,,Non-Networked,,GPS,33.782964,-116.474197,2022-07-12,116768,2022-07-12 20:31:42 UTC,P,,,2018-12-01,,,,,J1772 J1772COMBO,US,,,,Public,,public,,,AUTO_REPAIR,,,,,,,L2: Free,,,,,,,,,,false
ELEC,Hampton Inn & Suites,2011 E Donlan St,,Blythe,CA,92225,,760-921-8000  866-816-7584,E,,Public,24 hours daily,,,,,,2,1,,EV Connect,http://evconnect.com/,GPS,33.606344,-114.569497,2020-04-08,116779,2022-08-18 16:19:23 UTC,P,,,2018-12-01,,,,,CHADEMO J1772 J1772COMBO,US,,,,Public,,public,,,HOTEL,,,,,,,Free,,,,,,,,,,false
ELEC,Crystal Cove Shopping Center,8086 Pacific Coast Hwy,,Newport Beach,CA,92657,,949-720-3100,E,,Public - Credit card at all times,24 hours daily,A M V,,,,,,1,,Non-Networked,,GPS,33.568737,-117.830418,2021-03-15,117736,2022-02-10 19:42:29 UTC,P,,,2019-01-01,,,,,CHADEMO J1772COMBO,US,,,,Public - Carte de crédit en tout temps,,public,CREDIT_CARD_ALWAYS,,SHOPPING_CENTER,,,,,,,Level 2: $1 per hour; DC fast: $5 per hour,,,,,,,,,,false
ELEC,Newport Coast Shopping Center,21175 Newport Coast Dr,,Newport Beach,CA,92657,,949-720-3100,E,,Public - Credit card at all times,24 hours daily,A M V,,,,,,2,,Non-Networked,,GPS,33.607095,-117.826907,2021-03-15,117737,2022-02-10 19:42:29 UTC,P,,,2019-01-01,,,,,CHADEMO J1772COMBO,US,,,,Public - Carte de crédit en tout temps,,public,CREDIT_CARD_ALWAYS,,SHOPPING_CENTER,,,,,,,Level 2: $1 per hour; DC fast: $5 per hour,,,,,,,,,,false
ELEC,Paradise Chevrolet,6350 Leland St,,Ventura,CA,93003,,805-667-0189,E,,Public - Call ahead,Service and customer use only,,,,,,1,1,,Non-Networked,,200-9,34.246361,-119.202511,2021-12-09,120806,2022-02-10 19:42:29 UTC,P,,,2014-09-01,,,,,J1772 J1772COMBO,US,,,,Public - Appeler à l'avance,,public,CALL,,CAR_DEALER,,,,,,,,,,,,,,,,,true
ELEC,America's Best Value Inn,3930 County Road 89,,Dunnigan,CA,95937,,833-632-2778,E,,Public,24 hours daily,,,,,,,4,,Electrify America,https://www.electrifyamerica.com/,GPS,38.882323,-121.972465,2022-09-07,121776,2022-09-07 01:52:05 UTC,,,,2019-02-01,,,,,CHADEMO J1772COMBO,US,,,,Public,,public,,,,,,,,,,,,,,,,,,,,
ELEC,San Francisco Premium Outlets,2774 Livermore Outlets Dr.,,Livermore,CA,94551,,833-632-2778,E,,Public,24 hours daily,,,,,,,10,,Electrify America,https://www.electrifyamerica.com/,GPS,37.70005,-121.840933,2022-09-07,121788,2022-09-07 01:53:08 UTC,,,,2018-10-03,,,,,CHADEMO J1772COMBO,US,,,,Public,,public,,,,,,,,,,,,,,,,,,,,
ELEC,Country Hills Shopping Plaza,2965 Rolling Hills Road,,Torrance,CA,90505,,833-632-2778,E,,Public,24 hours daily,,,,,,1,3,,Electrify America,https://www.electrifyamerica.com/,GPS,33.790224,-118.341224,2022-09-07,121826,2022-09-07 01:53:02 UTC,,,,2018-10-20,,,,,CHADEMO J1772 J1772COMBO,US,,,,Public,,public,,,,,,,,,,,,,,,,,,,,
ELEC,La Mirada,14900 La Mirada Blvd.,,La Mirada,CA,90638,,833-632-2778,E,,Public,24 hours daily,,,,,,1,3,,Electrify America,https://www.electrifyamerica.com/,GPS,33.89572,-118.008252,2022-09-07,122720,2022-09-07 01:52:13 UTC,,,,2019-05-11,,,,,CHADEMO J1772 J1772COMBO,US,,,,Public,,public,,,,,,,,,,,,,,,,,,,,
ELEC,Walmart 5843 Patterson,1030 Sperry Ave,,Patterson,CA,95363,,833-632-2778,E,,Public,24 hours daily,,,,,,,4,,Electrify America,https://www.electrifyamerica.com/,GPS,37.462245,-121.141278,2022-09-07,122744,2022-09-07 01:52:31 UTC,,,,2019-05-14,,,,,CHADEMO J1772COMBO,US,,,,Public,,public,,,,,,,,,,,,,,,,,,,,
ELEC,Hampton Inn & Suites,74900 Gerald Ford Dr,,Palm Desert,CA,92211,,866-816-7584,E,,Public,24 hours daily,,,,,,2,1,,EV Connect,http://evconnect.com/,GPS,33.782516,-116.357293,2020-04-08,123230,2021-03-11 23:22:17 UTC,P,,,2019-04-01,,,,,CHADEMO J1772 J1772COMBO,US,,,,Public,,public,,,HOTEL,,,,,,,,,,,,,,,,,false
ELEC,Arbor Faire,3310 W Shaw Ave.,,Fresno,CA,93711,,833-632-2778,E,,Public,24 hours daily,,,,,,1,3,,Electrify America,https://www.electrifyamerica.com/,GPS,36.809531,-119.848926,2022-09-07,124448,2022-09-07 01:52:52 UTC,,,,2019-06-23,,,,,CHADEMO J1772 J1772COMBO,US,,,,Public,,public,,,,,,,,,,,,,,,,,,,,
ELEC,"Walmart 5686 - Burbank, CA",1301 N. Victory Place,,Burbank,CA,91502,,833-632-2778,E,,Public,24 hours daily,,,,,,,10,,Electrify America,https://www.electrifyamerica.com/,GPS,34.188589,-118.326511,2022-09-07,125760,2022-09-07 01:52:37 UTC,,,,2019-07-02,,,,,CHADEMO J1772COMBO,US,,,,Public,,public,,,,,,,,,,,,,,,,,,,,
ELEC,"Walmart 1910 - Crescent City, CA",900 East Washington Blvd,,Crescent City,CA,95531,,833-632-2778,E,,Public,24 hours daily,,,,,,,4,,Electrify America,https://www.electrifyamerica.com/,GPS,41.774082,-124.189754,2022-09-07,126268,2022-09-07 01:52:23 UTC,,,,2019-07-04,,,,,CHADEMO J1772COMBO,US,,,,Public,,public,,,,,,,,,,,,,,,,,,,,
ELEC,Del Amo Fashion Center,3525 W Carson St.,,Torrance,CA,90503,,833-632-2778,E,,Public,24 hours daily,,,,,,,6,,Electrify America,https://www.electrifyamerica.com/,GPS,33.831621,-118.347593,2022-09-07,128243,2022-09-07 01:52:12 UTC,,,,2019-07-13,,,,,CHADEMO J1772COMBO,US,,,,Public,,public,,,,,,,,,,,,,,,,,,,,
ELEC,555 Mission - Parking Garage,555 Mission St,,San Francisco,CA,94105,,415-991-0135,E,,Public,8am-5pm daily,,,,,,,2,,Non-Networked,,200-9,37.788554,-122.398826,2022-01-10,129035,2022-02-10 19:42:29 UTC,P,,,2019-05-28,,,,,CHADEMO J1772COMBO,US,,,,Public,,public,,,PARKING_GARAGE,,,,,,,,,,,,,,,,,false
ELEC,"Walmart 1700 - Poway, CA",13425 Community Rd,,Poway,CA,92064,,833-632-2778,E,,Public,24 hours daily,,,,,,1,3,,Electrify America,https://www.electrifyamerica.com/,GPS,32.958302,-117.039434,2022-09-07,139501,2022-09-07 01:52:30 UTC,,,,2019-08-07,,,,,CHADEMO J1772 J1772COMBO,US,,,,Public,,public,,,,,,,,,,,,,,,,,,,,
ELEC,IRVINE COMPANY WOODBURY DCFC 2,6428 Irvine Blvd,,Irvine,CA,92620,,888-758-4389,E,,Public,24 hours daily,,,,,,,1,,ChargePoint Network,http://www.chargepoint.com/,GPS,33.698858,-117.740535,2022-09-09,143146,2022-09-09 00:59:50 UTC,,,,2019-08-15,,,,,CHADEMO J1772COMBO,US,,,,Public,,public,,,,,,,,,,,,,,,,,,,,
ELEC,Fashion Valley,7007 Friars Road,,San Diego,CA,92108,,833-632-2778,E,,Public,24 hours daily,,,,,,1,3,,Electrify America,https://www.electrifyamerica.com/,GPS,32.769261,-117.163813,2022-09-07,143940,2022-09-07 01:52:11 UTC,,,,2019-08-21,,,,,CHADEMO J1772 J1772COMBO,US,,,,Public,,public,,,,,,,,,,,,,,,,,,,,
ELEC,City of Elk Grove Civic Center- Aquatics,9701 Big Horn Dr,,Elk Grove,CA,95758,,916-883-2782,E,,Public,24 hours daily,,,,,,,3,,Non-Networked,,GPS,38.404991,-121.403634,2021-12-09,143991,2022-07-18 12:24:18 UTC,LG,,,2019-08-22,,,,,CHADEMO J1772COMBO,US,,,,Public,,public,,,MUNI_GOV,,,,,,,,,,,,,,,,,false
ELEC,City of Elk Grove Civic Center- Community Center,8230 Civic Center Dr,,Elk Grove,CA,95758,,916-405-5600,E,,Public,24 hours daily,,,,,,,1,,Non-Networked,,GPS,38.405281,-121.401539,2021-12-09,143992,2022-07-18 12:24:18 UTC,LG,,,2019-08-22,,,,,CHADEMO J1772COMBO,US,,,,Public,,public,,,MUNI_GOV,,,,,,,,,,,,,,,,,false
ELEC,Ontario Mills,950 Ontario Mills Dr,,Ontario,CA,91764,,833-632-2778,E,,Public,24 hours daily,,,,,,,8,,Electrify America,https://www.electrifyamerica.com/,GPS,34.074235,-117.547529,2022-09-07,144238,2022-09-07 01:52:09 UTC,,,,2019-08-30,,,,,CHADEMO J1772COMBO,US,,,,Public,,public,,,,,,,,,,,,,,,,,,,,
ELEC,"Walmart 1963 - Turlock, CA",2111 Fulkerth Road,,Turlock,CA,95380,,833-632-2778,E,,Public,24 hours daily,,,,,,,4,,Electrify America,https://www.electrifyamerica.com/,GPS,37.50834,-120.872735,2022-09-07,145207,2022-09-07 01:52:45 UTC,,,,2019-09-13,,,,,CHADEMO J1772COMBO,US,,,,Public,,public,,,,,,,,,,,,,,,,,,,,
ELEC,"Walmart 1630 - Yreka, CA",1906 Fort Jones Road,,Yreka,CA,96097,,833-632-2778,E,,Public,24 hours daily,,,,,,,4,,Electrify America,https://www.electrifyamerica.com/,GPS,41.699378,-122.645123,2022-09-07,145228,2022-09-07 01:52:34 UTC,,,,2019-09-14,,,,,CHADEMO J1772COMBO,US,,,,Public,,public,,,,,,,,,,,,,,,,,,,,
ELEC,Placerville,1216 Broadway,,Placerville,CA,95667,,888-758-4389,E,,Public,24 hours daily,,,,,,2,2,,Non-Networked,,GPS,38.730288,-120.788051,2021-01-14,145293,2021-03-11 23:22:17 UTC,P,,,2019-09-01,,,,,CHADEMO J1772 J1772COMBO,US,,,,Public,,public,,,SHOPPING_CENTER,,,,,,,Free,,,,,,,,,,false
ELEC,"Walmart 2985 - Fresno, CA",7065 N Ingram Avenue,,Fresno,CA,93650,,833-632-2778,E,,Public,24 hours daily,,,,,,1,3,,Electrify America,https://www.electrifyamerica.com/,GPS,36.838348,-119.802139,2022-09-07,145372,2022-09-07 01:52:32 UTC,,,,2019-09-19,,,,,CHADEMO J1772 J1772COMBO,US,,,,Public,,public,,,,,,,,,,,,,,,,,,,,
ELEC,IRVINE COMPANY FASHION DCFC 01,555 Newport Center Dr,,Newport Beach,CA,92660,,888-758-4389,E,,Public,24 hours daily,,,,,,,1,,ChargePoint Network,http://www.chargepoint.com/,GPS,33.617622,-117.87427,2022-09-09,145442,2022-09-09 00:59:53 UTC,,,,2019-09-21,,,,,CHADEMO J1772COMBO,US,,,,Public,,public,,,,,,,,,,,,,,,,,,,,
ELEC,IRVINE COMPANY FASHION DCFC 02,545 Newport Center Dr,,Newport Beach,CA,92660,,888-758-4389,E,,Public,24 hours daily,,,,,,,1,,ChargePoint Network,http://www.chargepoint.com/,GPS,33.617554,-117.87417,2022-09-09,145444,2022-09-09 00:59:53 UTC,,,,2019-09-21,,,,,CHADEMO J1772COMBO,US,,,,Public,,public,,,,,,,,,,,,,,,,,,,,
ELEC,"Vons 2598 - La Crescenta, CA",3233 Foothill Blvd.,,La Crescenta,CA,91214,,833-632-2778,E,,Public,24 hours daily,,,,,,1,3,,Electrify America,https://www.electrifyamerica.com/,GPS,34.230755,-118.24909,2022-09-07,145657,2022-09-07 01:52:49 UTC,,,,2019-09-28,,,,,CHADEMO J1772 J1772COMBO,US,,,,Public,,public,,,,,,,,,,,,,,,,,,,,
ELEC,Felicita Plaza,329 W Felicita Ave,,Escondido,CA,92025,,833-632-2778,E,,Public,24 hours daily,,,,,,1,3,,Electrify America,https://www.electrifyamerica.com/,GPS,33.103136,-117.074389,2022-09-07,145681,2022-09-07 01:52:07 UTC,,,,2019-10-01,,,,,CHADEMO J1772 J1772COMBO,US,,,,Public,,public,,,,,,,,,,,,,,,,,,,,
ELEC,"Walmart 2181 - Indio, CA",82-491 Avenue 42,,Indio,CA,92203,,833-632-2778,E,,Public,24 hours daily,,,,,,,4,,Electrify America,https://www.electrifyamerica.com/,GPS,33.741427,-116.228875,2022-09-07,146616,2022-09-07 01:52:39 UTC,,,,2019-10-04,,,,,CHADEMO J1772COMBO,US,,,,Public,,public,,,,,,,,,,,,,,,,,,,,
ELEC,Great Mall,447 Great Mall Drive,,Milpitas,CA,95035,,833-632-2778,E,,Public,24 hours daily,,,,,,,4,,Electrify America,https://www.electrifyamerica.com/,GPS,37.41336,-121.897995,2022-09-07,146645,2022-09-07 01:52:08 UTC,,,,2019-10-05,,,,,CHADEMO J1772COMBO,US,,,,Public,,public,,,,,,,,,,,,,,,,,,,,
ELEC,DS-98,4261 Arch Dr,,Studio City,CA,91604,,855-900-7584,E,,Public,24 hours daily,,,,,,,1,,Greenlots,http://greenlots.com/,GPS,34.142327,-118.373632,2022-09-09,146931,2022-09-09 01:16:00 UTC,,,,2019-10-12,,,,,CHADEMO J1772COMBO,US,,,,Public,,public,,,,,,,,,,,,,,,,,,,,
ELEC,West LA Service Center,1394 S Sepulveda Blvd,,Los Angeles,CA,90025,,855-900-7584,E,,Public,24 hours daily,,,,,,,1,,Greenlots,http://greenlots.com/,GPS,34.052129,-118.447661,2022-09-09,146935,2022-09-09 01:16:00 UTC,,,,2019-10-12,,,,,CHADEMO J1772COMBO,US,,,,Public,,public,,,,,,,,,,,,,,,,,,,,
ELEC,Bakersfield Plaza,4310 California Ave.,,Bakersfield,CA,93309,,833-632-2778,E,,Public,24 hours daily,,,,,,,4,,Electrify America,https://www.electrifyamerica.com/,GPS,35.367554,-119.050845,2022-09-07,146977,2022-09-07 01:52:45 UTC,,,,2019-10-15,,,,,CHADEMO J1772COMBO,US,,,,Public,,public,,,,,,,,,,,,,,,,,,,,
ELEC,Greene Middle School,750 N California Ave,,Palo Alto,CA,94303,,650-469-3392,E,,Public - Credit card at all times,7am-3pm daily,A M V,,,,,14,1,,POWERFLEX,https://www.powerflex.com,200-9,37.438796,-122.134121,2021-07-14,147007,2022-02-24 19:57:48 UTC,P,,,2018-01-01,,,,,CHADEMO J1772 J1772COMBO,US,,,,Public - Carte de crédit en tout temps,,public,CREDIT_CARD_ALWAYS,,SCHOOL,,,,,,,$0.10 per kWh,,,,,,,,,,false
ELEC,"Walmart 2517 - Santa Ana, CA",3600 W. McFadden Avenue,,Santa Ana,CA,92704,,833-632-2778,E,,Public,24 hours daily,,,,,,1,3,,Electrify America,https://www.electrifyamerica.com/,GPS,33.736619,-117.916354,2022-09-07,147027,2022-09-07 01:52:42 UTC,,,,2019-10-17,,,,,CHADEMO J1772 J1772COMBO,US,,,,Public,,public,,,,,,,,,,,,,,,,,,,,
ELEC,"Walmart 4132 - Downey, CA",9001 Apollo Way,,Downey,CA,90242,,833-632-2778,E,,Public,24 hours daily,,,,,,1,3,,Electrify America,https://www.electrifyamerica.com/,GPS,33.923409,-118.128014,2022-09-07,147130,2022-09-07 01:52:37 UTC,,,,2019-10-22,,,,,CHADEMO J1772 J1772COMBO,US,,,,Public,,public,,,,,,,,,,,,,,,,,,,,
ELEC,City of Pismo Beach - City Hall,760 Mattie Rd,,Pismo Beach,CA,93449,,805-773-4655,E,,Public,24 hours daily,,,,,,,2,,EV Connect,http://evconnect.com/,200-9,35.157722,-120.668472,2020-04-08,147371,2021-03-11 23:22:17 UTC,LG,,,2019-10-29,,,,,CHADEMO J1772COMBO,US,,,,Public,,public,,,MUNI_GOV,,,,,,,$2 per hour; $3 per hour when not charging,,,,,,,,,,false
ELEC,"Albertsons 0561 - Arcadia, CA",298 E. Live Oak Avenue,,Arcadia,CA,91006,,833-632-2778,E,,Public,24 hours daily,,,,,,1,3,,Electrify America,https://www.electrifyamerica.com/,GPS,34.107253,-118.024396,2022-09-07,147441,2022-09-07 01:52:49 UTC,,,,2019-11-01,,,,,CHADEMO J1772 J1772COMBO,US,,,,Public,,public,,,,,,,,,,,,,,,,,,,,
ELEC,Westminster Mall,75 Westminster Mall,,Westminster,CA,92683,,833-632-2778,E,,Public,24 hours daily,,,,,,,4,,Electrify America,https://www.electrifyamerica.com/,GPS,33.745227,-118.013189,2022-09-07,147442,2022-09-07 01:53:03 UTC,,,,2019-11-01,,,,,CHADEMO J1772COMBO,US,,,,Public,,public,,,,,,,,,,,,,,,,,,,,
ELEC,Outlets at Orange,20 City Blvd W,,Orange,CA,92868,,833-632-2778,E,,Public,24 hours daily,,,,,,1,4,,Electrify America,https://www.electrifyamerica.com/,GPS,33.780236,-117.892436,2022-09-07,147561,2022-09-07 01:52:50 UTC,,,,2019-11-07,,,,,CHADEMO J1772 J1772COMBO,US,,,,Public,,public,,,,,,,,,,,,,,,,,,,,
ELEC,Santa Rosa Plaza,1071 Santa Rosa Plaza,,Santa Rosa,CA,95401,,833-632-2778,E,,Public,24 hours daily,,,,,,,6,,Electrify America,https://www.electrifyamerica.com/,GPS,38.438608,-122.717777,2022-09-07,147646,2022-09-07 01:52:10 UTC,,,,2019-11-09,,,,,CHADEMO J1772COMBO,US,,,,Public,,public,,,,,,,,,,,,,,,,,,,,
ELEC,"Walmart 1899 - Riverside, CA",6250 Valley Springs Parkway,,Riverside,CA,92507,,833-632-2778,E,,Public,24 hours daily,,,,,,,4,,Electrify America,https://www.electrifyamerica.com/,GPS,33.939719,-117.285598,2022-09-07,149153,2022-09-07 01:53:01 UTC,,,,2019-11-14,,,,,CHADEMO J1772COMBO,US,,,,Public,,public,,,,,,,,,,,,,,,,,,,,
ELEC,Simi Valley Chevrolet,1001 Cochran St,,Simi Valley,CA,93065,,805-870-5919,E,,Public,9am to 9pm daily; Customer use only,,,,,,4,1,,Non-Networked,,200-9,34.279473,-118.779709,2021-12-09,149233,2022-02-10 19:42:29 UTC,P,,,2019-11-17,,,,,CHADEMO J1772,US,,,,Public,,public,,,CAR_DEALER,,,,,,,Free,,,,,,,,,,true
ELEC,Bridgeport Shell,453 Main Street,,Bridgeport,CA,93517,,833-632-2778,E,,Public,24 hours daily,,,,,,,4,,Electrify America,https://www.electrifyamerica.com/,GPS,38.255687,-119.231941,2022-09-07,149421,2022-09-07 01:53:04 UTC,,,,2019-11-22,,,,,CHADEMO J1772COMBO,US,,,,Public,,public,,,,,,,,,,,,,,,,,,,,
ELEC,"Target T1309 - Van Nuys, CA",14920 Raymer Street,,Van Nuys,CA,91405,,833-632-2778,E,,Public,24 hours daily,,,,,,1,3,,Electrify America,https://www.electrifyamerica.com/,GPS,34.213379,-118.460438,2022-09-07,149450,2022-09-07 01:52:49 UTC,,,,2019-11-23,,,,,CHADEMO J1772 J1772COMBO,US,,,,Public,,public,,,,,,,,,,,,,,,,,,,,
ELEC,Metro 580,4575 Rosewood Drive,,Pleasanton,CA,94588,,833-632-2778,E,,Public,24 hours daily,,,,,,1,3,,Electrify America,https://www.electrifyamerica.com/,GPS,37.700678,-121.884398,2022-09-07,149638,2022-09-07 01:52:07 UTC,,,,2019-11-28,,,,,CHADEMO J1772 J1772COMBO,US,,,,Public,,public,,,,,,,,,,,,,,,,,,,,
ELEC,"Sam's Club 4822 - Murrieta, CA",40500 MURRIETA HOT SPRINGS RD.,,Murrieta,CA,92563,,833-632-2778,E,,Public,24 hours daily,,,,,,,4,,Electrify America,https://www.electrifyamerica.com/,GPS,33.554053,-117.176769,2022-09-07,149639,2022-09-07 01:52:44 UTC,,,,2019-11-28,,,,,CHADEMO J1772COMBO,US,,,,Public,,public,,,,,,,,,,,,,,,,,,,,
ELEC,DS-73,14061 Riverside Dr,,Sherman Oaks,CA,91423,,855-900-7584,E,,Public,24 hours daily,,,,,,,1,,Greenlots,http://greenlots.com/,GPS,34.157922,-118.439487,2022-09-09,149736,2022-09-09 01:15:59 UTC,,,,2019-12-05,,,,,CHADEMO J1772COMBO,US,,,,Public,,public,,,,,,,,,,,,,,,,,,,,
ELEC,"Walmart 2218 - Foothill Ranch, CA",26502 Towne Centre Drive,,Foothill Ranch,CA,92610,,833-632-2778,E,,Public,24 hours daily,,,,,,1,3,,Electrify America,https://www.electrifyamerica.com/,GPS,33.681115,-117.670676,2022-09-07,149741,2022-09-07 01:52:51 UTC,,,,2019-12-05,,,,,CHADEMO J1772 J1772COMBO,US,,,,Public,,public,,,,,,,,,,,,,,,,,,,,
ELEC,"Lucky 705 - Concord, CA",5190 Clayton Rd.,,Concord,CA,94521,,833-632-2778,E,,Public,24 hours daily,,,,,,1,3,,Electrify America,https://www.electrifyamerica.com/,GPS,37.954075,-121.965022,2022-09-07,149792,2022-09-07 01:53:04 UTC,,,,2019-12-07,,,,,CHADEMO J1772 J1772COMBO,US,,,,Public,,public,,,,,,,,,,,,,,,,,,,,
ELEC,Vacaville Premium Outlets,321 Nut Tree Road,,Vacaville,CA,95687,,833-632-2778,E,,Public,24 hours daily,,,,,,,8,,Electrify America,https://www.electrifyamerica.com/,GPS,38.367307,-121.956854,2022-09-07,149834,2022-09-07 01:52:11 UTC,,,,2019-12-10,,,,,CHADEMO J1772COMBO,US,,,,Public,,public,,,,,,,,,,,,,,,,,,,,
ELEC,"Walmart 5023 - National City, CA",1200 Highland Avenue,,National City,CA,91950,,833-632-2778,E,,Public,24 hours daily,,,,,,1,3,,Electrify America,https://www.electrifyamerica.com/,GPS,32.675073,-117.097733,2022-09-07,149894,2022-09-07 01:53:08 UTC,,,,2019-12-11,,,,,CHADEMO J1772 J1772COMBO,US,,,,Public,,public,,,,,,,,,,,,,,,,,,,,
ELEC,Marina Village,5922 Edinger Avenue,,Huntington Beach,CA,92649,,833-632-2778,E,,Public,24 hours daily,,,,,,1,3,,Electrify America,https://www.electrifyamerica.com/,GPS,33.729773,-118.026702,2022-09-07,150009,2022-09-07 01:52:13 UTC,,,,2019-12-13,,,,,CHADEMO J1772 J1772COMBO,US,,,,Public,,public,,,,,,,,,,,,,,,,,,,,
ELEC,DC CORRIDOR BAKERGREWAL DC4,72922 Baker Blvd,,Baker,CA,92309,,888-758-4389,E,,Public,24 hours daily,,,,,,,1,,ChargePoint Network,http://www.chargepoint.com/,GPS,35.277468,-116.056712,2022-09-09,150029,2022-09-09 00:59:17 UTC,,,,2019-12-14,,,,,CHADEMO J1772COMBO,US,,,,Public,,public,,,,,,,,,,,,,,,,,,,,
ELEC,Chevron- G&M,8032 Garden Grove Blvd,,Garden Grove,CA,92844,,714-903-8708,E,,Public,24 hours daily,,,,,,,1,,Non-Networked,,200-9,33.773298,-117.992257,2021-01-14,150281,2021-03-11 23:22:17 UTC,P,,,2019-12-02,,,,,CHADEMO J1772COMBO,US,,,,Public,,public,,,GAS_STATION,,,,,,,$0.15 per minute,,,,,,,,,,false
ELEC,"Walmart 2527 - San Clemente, CA",951 Avenida Pico,,San Clemente,CA,92673,,833-632-2778,E,,Public,24 hours daily,,,,,,1,3,,Electrify America,https://www.electrifyamerica.com/,GPS,33.454825,-117.606653,2022-09-07,150325,2022-09-07 01:52:51 UTC,,,,2019-12-18,,,,,CHADEMO J1772 J1772COMBO,US,,,,Public,,public,,,,,,,,,,,,,,,,,,,,
ELEC,BOA Washington-Centinela CA9-160,12316 W Washington Blvd,,Los Angeles,CA,90066,,833-632-2778,E,,Public,24 hours daily,,,,,,1,3,,Electrify America,https://www.electrifyamerica.com/,GPS,33.996374,-118.427262,2022-09-07,150357,2022-09-07 01:53:14 UTC,,,,2019-12-19,,,,,CHADEMO J1772 J1772COMBO,US,,,,Public,,public,,,,,,,,,,,,,,,,,,,,
ELEC,BOA Paso Robles CA1-109,1511 Spring Street,,Paso Robles,CA,93446,,833-632-2778,E,,Public,24 hours daily,,,,,,,4,,Electrify America,https://www.electrifyamerica.com/,GPS,35.630604,-120.692098,2022-09-07,150384,2022-09-07 01:52:03 UTC,,,,2019-12-20,,,,,CHADEMO J1772COMBO,US,,,,Public,,public,,,,,,,,,,,,,,,,,,,,
ELEC,"Target T2328 - Carson, CA",651 W. Sepulveda Blvd.,,Carson,CA,90745,,833-632-2778,E,,Public,24 hours daily,,,,,,1,3,,Electrify America,https://www.electrifyamerica.com/,GPS,33.809116,-118.286861,2022-09-07,150385,2022-09-07 01:52:49 UTC,,,,2019-12-20,,,,,CHADEMO J1772 J1772COMBO,US,,,,Public,,public,,,,,,,,,,,,,,,,,,,,
ELEC,"Ralphs 060 - Glendale, CA",1416 East Colorado St,,Glendale,CA,91205,,833-632-2778,E,,Public,24 hours daily,,,,,,1,3,,Electrify America,https://www.electrifyamerica.com/,GPS,34.142443,-118.233787,2022-09-07,150386,2022-09-07 01:53:02 UTC,,,,2019-12-20,,,,,CHADEMO J1772 J1772COMBO,US,,,,Public,,public,,,,,,,,,,,,,,,,,,,,
ELEC,"Target T2829 - Alameda, CA",2700 5th Street,,Alameda,CA,94501,,833-632-2778,E,,Public,24 hours daily,,,,,,,6,,Electrify America,https://www.electrifyamerica.com/,GPS,37.789579,-122.28003,2022-09-07,150477,2022-09-07 01:52:02 UTC,,,,2019-12-21,,,,,CHADEMO J1772COMBO,US,,,,Public,,public,,,,,,,,,,,,,,,,,,,,
ELEC,BoA 17th-Tustin CA7-133,2127 E 17th Street,,Santa Ana,CA,92705,,833-632-2778,E,,Public,24 hours daily,,,,,,1,3,,Electrify America,https://www.electrifyamerica.com/,GPS,33.760592,-117.835939,2022-09-07,150479,2022-09-07 01:53:14 UTC,,,,2019-12-21,,,,,CHADEMO J1772 J1772COMBO,US,,,,Public,,public,,,,,,,,,,,,,,,,,,,,
ELEC,Covington Elementary School,201 Covington Rd,,Los Altos,CA,94024,,650-469-3392,E,,Public,24 hours daily,,,,,,26,2,,POWERFLEX,https://www.powerflex.com,GPS,37.372,-122.107,2021-07-14,150780,2022-02-24 19:57:48 UTC,LG,,,2018-01-01,,,,,J1772 J1772COMBO,US,,,,Public,,public,,,SCHOOL,,,,,,,,,,,,,,,,,false
ELEC,Plaza Shopping Center - Pan Cal,1334 Saratoga Ave.,,San Jose,CA,95129,,833-632-2778,E,,Public,24 hours daily,,,,,,1,3,,Electrify America,https://www.electrifyamerica.com/,GPS,37.299776,-121.981693,2022-09-07,150802,2022-09-07 01:53:08 UTC,,,,2019-12-25,,,,,CHADEMO J1772 J1772COMBO,US,,,,Public,,public,,,,,,,,,,,,,,,,,,,,
ELEC,"Walmart 2150 - San Diego, CA",710 Dennery Road,,San Diego,CA,92154,,833-632-2778,E,,Public,24 hours daily,,,,,,1,3,,Electrify America,https://www.electrifyamerica.com/,GPS,32.580775,-117.034036,2022-09-07,150806,2022-09-07 01:53:12 UTC,,,,2019-12-26,,,,,CHADEMO J1772 J1772COMBO,US,,,,Public,,public,,,,,,,,,,,,,,,,,,,,
ELEC,"Walmart 4340 - Hesperia, CA",13401 Main Street,,Hesperia,CA,92345,,833-632-2778,E,,Public,24 hours daily,,,,,,,10,,Electrify America,https://www.electrifyamerica.com/,GPS,34.425461,-117.371679,2022-09-07,151969,2022-09-07 01:52:38 UTC,,,,2020-01-01,,,,,CHADEMO J1772COMBO,US,,,,Public,,public,,,,,,,,,,,,,,,,,,,,
ELEC,"Vons 1753 - Bishop, CA",1190 N Main Street,,Bishop,CA,93514,,833-632-2778,E,,Public,24 hours daily,,,,,,,4,,Electrify America,https://www.electrifyamerica.com/,GPS,37.373677,-118.393432,2022-09-07,151970,2022-09-07 01:52:44 UTC,,,,2020-01-01,,,,,CHADEMO J1772COMBO,US,,,,Public,,public,,,,,,,,,,,,,,,,,,,,
ELEC,"Target T2082 - Buena Park, CA",7530 Orangethorpe Avenue,,Buena Park,CA,90621,,833-632-2778,E,,Public,24 hours daily,,,,,,,6,,Electrify America,https://www.electrifyamerica.com/,GPS,33.856524,-118.00085,2022-09-07,151971,2022-09-07 01:53:02 UTC,,,,2020-01-01,,,,,CHADEMO J1772COMBO,US,,,,Public,,public,,,,,,,,,,,,,,,,,,,,
ELEC,"Plaza Del Sol - Burbank, CA",10950 Sherman Way,,Burbank,CA,91505,,833-632-2778,E,,Public,24 hours daily,,,,,,1,3,,Electrify America,https://www.electrifyamerica.com/,GPS,34.19998,-118.370067,2022-09-07,151972,2022-09-07 01:53:07 UTC,,,,2020-01-01,,,,,CHADEMO J1772 J1772COMBO,US,,,,Public,,public,,,,,,,,,,,,,,,,,,,,
ELEC,Delhi Unified School District,16491 Schendel Ave,,Delhi,CA,95315,,888-780-0062,E,,Public,24 hours daily,,,,,,4,4,,EV Connect,http://evconnect.com/,200-9,37.42645,-120.785863,2020-12-03,151978,2021-03-11 23:22:17 UTC,LG,,,2019-10-02,,,,,CHADEMO J1772 J1772COMBO,US,,,,Public,,public,,,SCHOOL,,,,,,,Level 2: $0.16 per kWh; DC Fast: $0.3 per kWh,,,,,,,,,,false
ELEC,DCH Audi - Oxnard,1600 Ventura Blvd,,Oxnard,CA,93036,,805-288-3800,E,,Public,Dealership business hours,,,,,,2,2,,Non-Networked,,GPS,34.22593,-119.156079,2020-12-03,152021,2021-03-11 23:22:17 UTC,P,,,2019-07-01,,,,,CHADEMO J1772 J1772COMBO,US,,,,Public,,public,,,CAR_DEALER,,,,,,,Free,,,,,,,,,,false
ELEC,Gilroy Premium Outlets,681 Leavesley Road,,Gilroy,CA,95020,,833-632-2778,E,,Public,24 hours daily,,,,,,,8,,Electrify America,https://www.electrifyamerica.com/,GPS,37.024306,-121.56286,2022-09-07,152120,2022-09-07 01:52:10 UTC,,,,2020-01-04,,,,,CHADEMO J1772COMBO,US,,,,Public,,public,,,,,,,,,,,,,,,,,,,,
ELEC,"Walmart 2053 - Willows, CA",470 Airport Road,,Willows,CA,95988,,833-632-2778,E,,Public,24 hours daily,,,,,,,4,,Electrify America,https://www.electrifyamerica.com/,GPS,39.525492,-122.218593,2022-09-07,152121,2022-09-07 01:52:44 UTC,,,,2020-01-04,,,,,CHADEMO J1772COMBO,US,,,,Public,,public,,,,,,,,,,,,,,,,,,,,
ELEC,Marengo Garage,155 E Green St,,Pasadena,CA,91105,,855-900-7584,E,,Public,24 hours daily,,,,,,,20,,Greenlots,http://greenlots.com/,200-8,34.144894,-118.14673,2022-09-09,152370,2022-09-09 01:16:03 UTC,,,,2020-01-10,,,,,CHADEMO J1772COMBO,US,,,,Public,,public,,,,,,,,,,,,,,,,,,,,
ELEC,Pismo Beach Premium Outlets,333 Five Cities Drive,,Pismo Beach,CA,93449,,833-632-2778,E,,Public,24 hours daily,,,,,,,4,,Electrify America,https://www.electrifyamerica.com/,GPS,35.136775,-120.629337,2022-09-07,152395,2022-09-07 01:52:09 UTC,,,,2020-01-11,,,,,CHADEMO J1772COMBO,US,,,,Public,,public,,,,,,,,,,,,,,,,,,,,
ELEC,"Save Mart 627 - Truckee, CA",11399 Deerfield Drive.,,Truckee,CA,96161,,833-632-2778,E,,Public,24 hours daily,,,,,,,4,,Electrify America,https://www.electrifyamerica.com/,GPS,39.319594,-120.208524,2022-09-07,152396,2022-09-07 01:53:00 UTC,,,,2020-01-11,,,,,CHADEMO J1772COMBO,US,,,,Public,,public,,,,,,,,,,,,,,,,,,,,
ELEC,CSG EV GT DC2,22795 Barton Rd,,Grand Terrace,CA,92313,,888-758-4389,E,,Public,24 hours daily,,,,,,,1,,ChargePoint Network,http://www.chargepoint.com/,GPS,34.034955,-117.306913,2022-09-09,152433,2022-09-09 01:00:12 UTC,,,,2020-01-15,,,,,CHADEMO J1772COMBO,US,,,,Public,,public,,,,,,,,,,,,,,,,,,,,
ELEC,"Walmart 2177 - San Diego, CA",3382 Murphy Canyon Rd.,,San Diego,CA,92123,,833-632-2778,E,,Public,24 hours daily,,,,,,1,3,,Electrify America,https://www.electrifyamerica.com/,GPS,32.804596,-117.115141,2022-09-07,152513,2022-09-07 01:52:30 UTC,,,,2020-01-17,,,,,CHADEMO J1772 J1772COMBO,US,,,,Public,,public,,,,,,,,,,,,,,,,,,,,
ELEC,City of Los Angeles Lot 702,1627 Vine St,,Los Angeles,CA,90028,,866-300-3827,E,,Public - Credit card at all times,24 hours daily,A Debit M V,,,,,,6,,EVCS,https://evcs.com,200-9,34.100573,-118.327438,2022-01-10,152556,2022-02-10 19:42:29 UTC,LG,,,2019-11-30,,,,,CHADEMO J1772COMBO,US,,,,Public - Carte de crédit en tout temps,,public,CREDIT_CARD_ALWAYS,,PARKING_GARAGE,,,,,,,$0.29 per kWh,,,,,,,,,,false
ELEC,H&S ENERGY H&S#2 CHEVRON 2,2950 Westminster Blvd,,Seal Beach,CA,90740,,888-758-4389,E,,Public,24 hours daily,,,,,,,1,,ChargePoint Network,http://www.chargepoint.com/,GPS,33.759311,-118.078566,2022-09-09,152568,2022-09-09 00:58:55 UTC,,,,2020-01-22,,,,,CHADEMO J1772COMBO,US,,,,Public,,public,,,,,,,,,,,,,,,,,,,,
ELEC,"Comfort Inn & Suites - Mojave, CA",1385 CA-58 BUS,,Mojave,CA,93501,,833-632-2778,E,,Public,24 hours daily,,,,,,,4,,Electrify America,https://www.electrifyamerica.com/,GPS,35.045355,-118.155994,2022-09-07,152895,2022-09-07 01:53:06 UTC,,,,2020-01-23,,,,,CHADEMO J1772COMBO,US,,,,Public,,public,,,,,,,,,,,,,,,,,,,,
ELEC,LADWP John Ferraro Building,111 N. Hope St,,Los Angeles,CA,90012,,855-900-7584,E,,Public,24 hours daily,,,,,,,1,,Greenlots,http://greenlots.com/,GPS,34.058953,-118.249006,2022-09-09,153164,2022-09-09 01:15:46 UTC,,,,2020-01-30,,,,,CHADEMO J1772COMBO,US,,,,Public,,public,,,,,,,,,,,,,,,,,,,,
ELEC,"Walmart 2989 - Fremont, CA",44009 Osgood Road,,Fremont,CA,94539,,833-632-2778,E,,Public,24 hours daily,,,,,,1,3,,Electrify America,https://www.electrifyamerica.com/,GPS,37.510917,-121.942163,2022-09-07,153165,2022-09-07 01:52:42 UTC,,,,2020-01-30,,,,,CHADEMO J1772 J1772COMBO,US,,,,Public,,public,,,,,,,,,,,,,,,,,,,,
ELEC,"Walmart 2648 - San Leandro, CA",1919 Davis Street,,San Leandro,CA,94577,,833-632-2778,E,,Public,24 hours daily,,,,,,1,3,,Electrify America,https://www.electrifyamerica.com/,GPS,37.715282,-122.177825,2022-09-07,153166,2022-09-07 01:52:53 UTC,,,,2020-01-30,,,,,CHADEMO J1772 J1772COMBO,US,,,,Public,,public,,,,,,,,,,,,,,,,,,,,
ELEC,Lawrence Oakmead Shopping Center,540-548 Lawrence Expressway,,Sunnyvale,CA,94085,,833-632-2778,E,,Public,24 hours daily,,,,,,1,3,,Electrify America,https://www.electrifyamerica.com/,GPS,37.384509,-121.9954,2022-09-07,153167,2022-09-07 01:53:10 UTC,,,,2020-01-30,,,,,CHADEMO J1772 J1772COMBO,US,,,,Public,,public,,,,,,,,,,,,,,,,,,,,
ELEC,BOA Santa Teresa-Bernal CA3-169,155 Bernal Rd.,,San Jose,CA,95119,,833-632-2778,E,,Public,24 hours daily,,,,,,,3,,Electrify America,https://www.electrifyamerica.com/,GPS,37.228593,-121.776138,2022-09-07,153205,2022-09-07 01:53:06 UTC,,,,2020-01-31,,,,,CHADEMO J1772COMBO,US,,,,Public,,public,,,,,,,,,,,,,,,,,,,,
ELEC,BOA Castro Valley CA4-121,3067 Castro Valley Blvd.,,Castro Valley,CA,94546,,833-632-2778,E,,Public,24 hours daily,,,,,,1,3,,Electrify America,https://www.electrifyamerica.com/,GPS,37.694788,-122.081561,2022-09-07,153240,2022-09-07 01:53:08 UTC,,,,2020-02-01,,,,,CHADEMO J1772 J1772COMBO,US,,,,Public,,public,,,,,,,,,,,,,,,,,,,,
ELEC,Brookvale Shopping Center,35720 Fremont Blvd.,,Fremont,CA,94536,,833-632-2778,E,,Public,24 hours daily,,,,,,,3,,Electrify America,https://www.electrifyamerica.com/,GPS,37.567156,-122.024161,2022-09-07,153241,2022-09-07 01:53:09 UTC,,,,2020-02-01,,,,,CHADEMO J1772COMBO,US,,,,Public,,public,,,,,,,,,,,,,,,,,,,,
ELEC,"Walmart 2025 - Tracy, CA",3010 W Grant Line Road,,Tracy,CA,95304,,833-632-2778,E,,Public,24 hours daily,,,,,,,4,,Electrify America,https://www.electrifyamerica.com/,GPS,37.753043,-121.472463,2022-09-07,153521,2022-09-07 01:53:00 UTC,,,,2020-02-07,,,,,CHADEMO J1772COMBO,US,,,,Public,,public,,,,,,,,,,,,,,,,,,,,
ELEC,"Walmart 2031 - Union City, CA",30600 Dyer Street,,Union City,CA,94587,,833-632-2778,E,,Public,24 hours daily,,,,,,1,3,,Electrify America,https://www.electrifyamerica.com/,GPS,37.604229,-122.068587,2022-09-07,153565,2022-09-07 01:52:42 UTC,,,,2020-02-08,,,,,CHADEMO J1772 J1772COMBO,US,,,,Public,,public,,,,,,,,,,,,,,,,,,,,
ELEC,DC CORRIDOR LAKEHEAD BB DC1,20725 Lakeshore Dr,,Lakehead-Lakeshore,CA,96051,,888-758-4389,E,,Public,24 hours daily,,,,,,,1,,ChargePoint Network,http://www.chargepoint.com/,GPS,40.886352,-122.385081,2022-09-09,153690,2022-09-09 00:59:14 UTC,,,,2020-02-13,,,,,CHADEMO J1772COMBO,US,,,,Public,,public,,,,,,,,,,,,,,,,,,,,
ELEC,Stanford Shopping Center,660 Stanford Shopping Center,,Palo Alto,CA,94304,,833-632-2778,E,,Public,24 hours daily,,,,,,,6,,Electrify America,https://www.electrifyamerica.com/,GPS,37.442081,-122.169765,2022-09-07,153726,2022-09-07 01:53:11 UTC,,,,2020-02-14,,,,,CHADEMO J1772COMBO,US,,,,Public,,public,,,,,,,,,,,,,,,,,,,,
ELEC,"Walmart 3352 - Stockton, CA",10355 Trinity Parkway,,Stockton,CA,95219,,833-632-2778,E,,Public,24 hours daily,,,,,,,8,,Electrify America,https://www.electrifyamerica.com/,GPS,38.050442,-121.376698,2022-09-07,153875,2022-09-07 01:53:00 UTC,,,,2020-02-21,,,,,CHADEMO J1772COMBO,US,,,,Public,,public,,,,,,,,,,,,,,,,,,,,
ELEC,"Walmart 3180 - South Gate, CA",4651 Firestone Blvd.,,South Gate,CA,90280,,833-632-2778,E,,Public,24 hours daily,,,,,,1,3,,Electrify America,https://www.electrifyamerica.com/,GPS,33.954181,-118.18774,2022-09-07,153876,2022-09-07 01:53:02 UTC,,,,2020-02-21,,,,,CHADEMO J1772 J1772COMBO,US,,,,Public,,public,,,,,,,,,,,,,,,,,,,,
ELEC,"Walmart 2536 - Tulare, CA",1110 E. Prosperity Ave.,,Tulare,CA,93274,,833-632-2778,E,,Public,24 hours daily,,,,,,,4,,Electrify America,https://www.electrifyamerica.com/,GPS,36.227446,-119.329209,2022-09-07,153897,2022-09-07 01:52:31 UTC,,,,2020-02-22,,,,,CHADEMO J1772COMBO,US,,,,Public,,public,,,,,,,,,,,,,,,,,,,,
ELEC,"Walmart 5162 - Santa Clarita, CA",27931 KELLY JOHNSON PKWY.,,Santa Clarita,CA,91355,,833-632-2778,E,,Public,24 hours daily,,,,,,,6,,Electrify America,https://www.electrifyamerica.com/,GPS,34.444147,-118.577145,2022-09-07,153898,2022-09-07 01:52:45 UTC,,,,2020-02-22,,,,,CHADEMO J1772COMBO,US,,,,Public,,public,,,,,,,,,,,,,,,,,,,,
ELEC,Eureka-Bayshore Mall,3300 Broadway Street,,Eureka,CA,95501,,833-632-2778,E,,Public,24 hours daily,,,,,,,4,,Electrify America,https://www.electrifyamerica.com/,GPS,40.776971,-124.190249,2022-09-07,154187,2022-09-07 01:52:15 UTC,,,,2020-02-29,,,,,CHADEMO J1772COMBO,US,,,,Public,,public,,,,,,,,,,,,,,,,,,,,
ELEC,Princeton Plaza Mall,1375 Blossom Hill Rd.,,San Jose,CA,95118,,833-632-2778,E,,Public,24 hours daily,,,,,,1,3,,Electrify America,https://www.electrifyamerica.com/,GPS,37.245928,-121.889275,2022-09-07,154188,2022-09-07 01:53:08 UTC,,,,2020-02-29,,,,,CHADEMO J1772 J1772COMBO,US,,,,Public,,public,,,,,,,,,,,,,,,,,,,,
ELEC,Hilton Plaza - San Gabriel,227 W Valley Blvd,,San Gabriel,CA,91776,,310-237-6883  866-300-3827,E,,Public - Credit card at all times,24 hours daily,A D Debit M V,,,,,,8,,EVCS,https://evcs.com,200-9,34.080011,-118.102679,2022-01-10,154266,2022-02-10 19:42:29 UTC,P,,,2020-02-12,,,,,CHADEMO J1772COMBO,US,,,,Public - Carte de crédit en tout temps,,public,CREDIT_CARD_ALWAYS,,HOTEL,,,,,,,Free for 0-30 mins; $0.30 per kWh for 30-75 mins; $1.00 per kWh after 75 mins,,,,,,,,,,false
ELEC,GE,1411 S Garfield Ave,,Alhambra,CA,91801,,310-237-6883,E,,Public - Credit card at all times,24 hours daily,A D Debit M V,,,,,,2,,EVCS,https://evcs.com,200-9,34.077862,-118.123387,2022-01-10,154267,2022-02-10 19:42:29 UTC,P,,,2020-02-28,,,,,CHADEMO J1772COMBO,US,,,,Public - Carte de crédit en tout temps,,public,CREDIT_CARD_ALWAYS,,OFFICE_BLDG,,,,,,,$0.30 per kWh,,,,,,,,,,false
ELEC,City of Los Angeles Lot 670,1710 N Cherokee Ave,,Los Angeles,CA,90028,,866-300-3827,E,,Public - Credit card at all times,24 hours daily,A D Debit M V,,,,,,6,,EVCS,https://evcs.com,200-9,34.102397,-118.334348,2022-01-10,154268,2022-02-10 19:42:29 UTC,P,,,2020-03-06,,,,,CHADEMO J1772COMBO,US,,,,Public - Carte de crédit en tout temps,,public,CREDIT_CARD_ALWAYS,,PARKING_GARAGE,,,,,,,$0.30 per kWh,,,,,,,,,,false
ELEC,"Lucky 736 - Oakland, CA",247 East 18th Street,,Oakland,CA,94606,,833-632-2778,E,,Public,24 hours daily,,,,,,,3,,Electrify America,https://www.electrifyamerica.com/,GPS,37.799655,-122.253132,2022-09-07,154345,2022-09-07 01:53:07 UTC,,,,2020-03-06,,,,,CHADEMO J1772COMBO,US,,,,Public,,public,,,,,,,,,,,,,,,,,,,,
ELEC,Monterey Park,"4100 Market Place Drive, Suite EV",,Monterey Park,CA,91755,,855-900-7584,E,,Public,24 hours daily,,,,,,,4,,Greenlots,http://greenlots.com/,GPS,34.036283,-118.098631,2022-09-09,154392,2022-09-09 01:16:08 UTC,,,,2020-03-10,,,,,CHADEMO J1772COMBO,US,,,,Public,,public,,,,,,,,,,,,,,,,,,,,
ELEC,Bradshaw Shell,3591 Bradshaw Rd.,,Sacramento,CA,95827,,855-900-7584,E,,Public,24 hours daily,,,,,,,1,,Greenlots,http://greenlots.com/,GPS,38.557442,-121.335459,2022-09-09,154418,2022-09-09 01:16:07 UTC,,,,2020-03-11,,,,,CHADEMO J1772COMBO,US,,,,Public,,public,,,,,,,,,,,,,,,,,,,,
ELEC,Almond Elementary School,550 Almond Ave,,Los Altos,CA,94022,,650-479-7359,E,,Public,24 hours daily,,,,,,18,2,,Non-Networked,,GPS,37.384776,-122.10123,2020-04-08,154654,2021-03-11 23:22:17 UTC,P,,,2020-03-20,,,,,CHADEMO J1772 J1772COMBO,US,,,,Public,,public,,,SCHOOL,,,,,,,,,,,,,,,,,false
ELEC,Egan Junior High School,100 W Portola Ave,,Los Altos,CA,94022,,650-479-7359,E,,Public,24 hours daily,,,,,,26,4,,Non-Networked,,GPS,37.39641,-122.117962,2020-04-08,154655,2021-03-11 23:22:17 UTC,P,,,2020-03-20,,,,,CHADEMO J1772 J1772COMBO,US,,,,Public,,public,,,SCHOOL,,,,,,,,,,,,,,,,,false
ELEC,Wyndham Visalia,9000 W Airport Dr,,Visalia,CA,93277,,866-816-7584,E,,Public,24 hours daily,,,,,,2,4,,EV Connect,http://evconnect.com/,GPS,36.325354,-119.391607,2020-04-08,154665,2021-03-11 23:22:17 UTC,P,,,2020-03-13,,,,,CHADEMO J1772 J1772COMBO,US,,,,Public,,public,,,HOTEL,,,,,,,,,,,,,,,,,false
ELEC,Fairfield Inn & Suites,216 Ventura Ct,,Kingsburg,CA,93631,,866-816-7584,E,,Public,24 hours daily,,,,,,2,4,,EV Connect,http://evconnect.com/,GPS,36.52008,-119.565234,2020-04-08,154666,2021-03-11 23:22:17 UTC,P,,,2020-03-13,,,,,CHADEMO J1772 J1772COMBO,US,,,,Public,,public,,,HOTEL,,,,,,,,,,,,,,,,,false
ELEC,Urban Radish,661 Imperial St,,Los Angeles,CA,90021,,866-300-3827,E,,Public,24 hours daily,,,,,,,2,,EVCS,https://evcs.com,GPS,34.035881,-118.23151,2022-01-10,154667,2022-02-10 19:42:29 UTC,P,,,2020-03-13,,,,,CHADEMO J1772COMBO,US,,,,Public,,public,,,RESTAURANT,,,,,,,,,,,,,,,,,false
ELEC,"Walmart 1912 - Corona, CA",479 McKinley St.,,Corona,CA,92879,,833-632-2778,E,,Public,24 hours daily,,,,,,,4,,Electrify America,https://www.electrifyamerica.com/,GPS,33.890481,-117.517689,2022-09-07,154710,2022-09-07 01:52:44 UTC,,,,2020-03-25,,,,,CHADEMO J1772COMBO,US,,,,Public,,public,,,,,,,,,,,,,,,,,,,,
ELEC,"Walmart 2458 - Salinas, CA",1800 North Main St.,,Salinas,CA,93906,,833-632-2778,E,,Public,24 hours daily,,,,,,,4,,Electrify America,https://www.electrifyamerica.com/,GPS,36.718854,-121.650524,2022-09-07,154711,2022-09-07 01:52:58 UTC,,,,2020-03-25,,,,,CHADEMO J1772COMBO,US,,,,Public,,public,,,,,,,,,,,,,,,,,,,,
ELEC,EL CAJON A01,13516 Camino Canada,,El Cajon,CA,92021,,888-758-4389,E,,Public,24 hours daily,,,,,,,1,,ChargePoint Network,http://www.chargepoint.com/,GPS,32.827884,-116.90042,2022-09-09,154839,2022-09-09 01:00:02 UTC,,,,2020-03-31,,,,,CHADEMO J1772COMBO,US,,,,Public,,public,,,,,,,,,,,,,,,,,,,,
ELEC,"Walmart 1879 - Barstow, CA",301 Montara Road,,Barstow,CA,92311,,833-632-2778,E,,Public,24 hours daily,,,,,,,8,,Electrify America,https://www.electrifyamerica.com/,GPS,34.884139,-116.993564,2022-09-07,154846,2022-09-07 01:52:38 UTC,,,,2020-03-31,,,,,CHADEMO J1772COMBO,US,,,,Public,,public,,,,,,,,,,,,,,,,,,,,
ELEC,Shaw and Dewitt - Clovis,540 Shaw Avenue,,Clovis,CA,93612,,833-632-2778,E,,Public,24 hours daily,,,,,,,4,,Electrify America,https://www.electrifyamerica.com/,GPS,36.807831,-119.703207,2022-09-07,154847,2022-09-07 01:53:13 UTC,,,,2020-03-31,,,,,CHADEMO J1772COMBO,US,,,,Public,,public,,,,,,,,,,,,,,,,,,,,
ELEC,City of Los Angeles Lot 745,6801 Hollywood Blvd,,Los Angeles,CA,90028,,866-300-3827,E,,Public - Credit card at all times,24 hours daily,A D Debit M V,,,,,,6,,EVCS,https://evcs.com,200-9,34.102542,-118.339438,2022-01-10,155128,2022-02-10 19:42:29 UTC,P,,,2020-01-20,,,,,CHADEMO J1772COMBO,US,,,,Public - Carte de crédit en tout temps,,public,CREDIT_CARD_ALWAYS,,PARKING_GARAGE,,,,,,,$0.30 per kWh,,,,,,,,,,false
ELEC,Shops at Mission Viejo,555 Shops Blvd.,,Mission Viejo,CA,92691,,833-632-2778,E,,Public,24 hours daily,,,,,,,4,,Electrify America,https://www.electrifyamerica.com/,GPS,33.557264,-117.668005,2022-09-07,155195,2022-09-07 01:53:02 UTC,,,,2020-04-04,,,,,CHADEMO J1772COMBO,US,,,,Public,,public,,,,,,,,,,,,,,,,,,,,
ELEC,Beyond Mart,12970 Day St,Eucalyptus and Day street,Moreno Valley,CA,92507,,909-464-1600,E,,Public,24 hours daily,,,,,,,3,,Non-Networked,,200-8,33.932004,-117.278618,2022-08-10,155270,2022-08-10 13:32:10 UTC,P,,,2020-04-01,,,,,CHADEMO J1772COMBO,US,,,,Public,,public,,,GAS_STATION,,,,,,,$0.22 per kWh,,,,,,,,,,false
ELEC,PD CITY HALL #1,73510 Fred Waring Dr,,Palm Desert,CA,92260,,888-758-4389,E,,Public,24 hours daily,,,,,,,1,,ChargePoint Network,http://www.chargepoint.com/,GPS,33.73086,-116.382111,2022-09-09,155381,2022-09-09 00:59:52 UTC,,,,2020-04-15,,,,,CHADEMO J1772COMBO,US,,,,Public,,public,,,,,,,,,,,,,,,,,,,,
ELEC,PRP OCEANSIDE A02,1928 S Moreno St,,Oceanside,CA,92054,,888-758-4389,E,,Public,24 hours daily,,,,,,,1,,ChargePoint Network,http://www.chargepoint.com/,GPS,33.176771,-117.352445,2022-09-09,155419,2022-09-09 00:59:21 UTC,,,,2020-04-18,,,,,CHADEMO J1772COMBO,US,,,,Public,,public,,,,,,,,,,,,,,,,,,,,
ELEC,EV BLDG K STATION 2,4010 Point Eden Way,,Hayward,CA,94545,,888-758-4389,E,,Public,24 hours daily,,,,,,,1,,ChargePoint Network,http://www.chargepoint.com/,GPS,37.624584,-122.12718,2022-09-09,155519,2022-09-09 01:00:28 UTC,,,,2020-04-23,,,,,J1772COMBO,US,,,,Public,,public,,,,,,,,,,,,,,,,,,,,
ELEC,Walmart 2242 Anaheim,440 N. Euclid St.,,Anaheim,CA,92801,,833-632-2778,E,,Public,24 hours daily,,,,,,,10,,Electrify America,https://www.electrifyamerica.com/,GPS,33.836039,-117.93942,2022-09-07,155557,2022-09-07 01:52:37 UTC,,,,2020-04-24,,,,,CHADEMO J1772COMBO,US,,,,Public,,public,,,,,,,,,,,,,,,,,,,,
ELEC,Walmart 1692 Colton,1120 S. Mount Vernon Avenue,,Colton,CA,92324,,833-632-2778,E,,Public,24 hours daily,,,,,,,6,,Electrify America,https://www.electrifyamerica.com/,GPS,34.049259,-117.307476,2022-09-07,155575,2022-09-07 01:52:36 UTC,,,,2020-04-25,,,,,CHADEMO J1772COMBO,US,,,,Public,,public,,,,,,,,,,,,,,,,,,,,
ELEC,BOA Emeryville CA4-137,4120 San Pablo Avenue,,Emeryville,CA,94608,,833-632-2778,E,,Public,24 hours daily,,,,,,,3,,Electrify America,https://www.electrifyamerica.com/,GPS,37.832678,-122.279743,2022-09-07,155576,2022-09-07 01:53:08 UTC,,,,2020-04-25,,,,,CHADEMO J1772COMBO,US,,,,Public,,public,,,,,,,,,,,,,,,,,,,,
ELEC,City of Palmdale - Park and Ride,210 East Ave S,,Palmdale,CA,93550,,866-300-3827,E,,Public - Credit card at all times,24 hours daily,A D Debit M V,,,,,,8,,EVCS,https://evcs.com,GPS,34.55742944,-118.1290371,2022-01-10,155913,2022-02-10 19:42:29 UTC,LG,,,2020-03-25,,,,,CHADEMO J1772COMBO,US,,,,Public - Carte de crédit en tout temps,,public,CREDIT_CARD_ALWAYS,,PARKING_LOT,,,,,,,$0.30 per kWh,,,,,,,,,,false
ELEC,City of Los Angeles Lot 675,4642 Russell Ave,,Los Angeles,CA,90027,,866-300-3827,E,,Public - Credit card at all times,24 hours daily,A D Debit M V,,,,,,8,,EVCS,https://evcs.com,GPS,34.10391149,-118.2910523,2022-01-10,155914,2022-02-10 19:42:29 UTC,LG,,,2020-03-11,,,,,CHADEMO J1772COMBO,US,,,,Public - Carte de crédit en tout temps,,public,CREDIT_CARD_ALWAYS,,PARKING_LOT,,,,,,,$0.30 per kWh,,,,,,,,,,false
ELEC,City of Los Angeles Lot 656,1615 Colby Ave,,Los Angeles,CA,90025,,866-300-3827,E,,Public - Credit card at all times,24 hours daily,A D Debit M V,,,,,,8,,EVCS,https://evcs.com,200-9,34.044509,-118.452764,2022-01-10,155915,2022-02-10 19:42:29 UTC,LG,,,2020-03-11,,,,,CHADEMO J1772COMBO,US,,,,Public - Carte de crédit en tout temps,,public,CREDIT_CARD_ALWAYS,,PARKING_LOT,,,,,,,$0.30 per kWh,,,,,,,,,,false
ELEC,City of Los Angeles Lot 619,1451 N Gardner St,,Hollywood,CA,90046,,866-300-3827,E,,Public - Credit card at all times,24 hours daily,A D Debit M V,,,,,,8,,EVCS,https://evcs.com,200-8,34.09784,-118.353036,2022-01-10,155916,2022-02-10 19:42:29 UTC,LG,,,2020-03-11,,,,,CHADEMO J1772COMBO,US,,,,Public - Carte de crédit en tout temps,,public,CREDIT_CARD_ALWAYS,,PARKING_LOT,,,,,,,$0.30 per kWh,,,,,,,,,,false
ELEC,Love's Travel Stop,1553 W Colony Rd,,Ripon,CA,95366,,866-816-7584  209-599-0740,E,,Public,24 hours daily,,,,,,2,4,,EV Connect,http://evconnect.com/,GPS,37.754669,-121.141119,2020-08-05,155990,2021-03-11 23:22:17 UTC,P,,,2020-03-01,,,,,CHADEMO J1772 J1772COMBO,US,,,,Public,,public,,,GAS_STATION,,,,,,,$0.40 per kWh,,,,,,,,,,false
ELEC,NORCO CITY HALL NORCO CH-1,2870 Clark Ave,,Norco,CA,92860,,888-758-4389,E,,Public,24 hours daily,,,,,,,1,,ChargePoint Network,http://www.chargepoint.com/,GPS,33.923803,-117.561284,2022-09-09,156072,2022-09-09 01:00:42 UTC,,,,2020-05-06,,,,,CHADEMO J1772COMBO,US,,,,Public,,public,,,,,,,,,,,,,,,,,,,,
ELEC,"Camarillo Premium Outlets (Camarillo, CA)",740 Ventura Blvd,,Camarillo,CA,93010,,833-632-2778,E,,Public,24 hours daily,,,,,,,10,,Electrify America,https://www.electrifyamerica.com/,GPS,34.217937,-119.064522,2022-09-07,157990,2022-09-07 01:53:00 UTC,,,,2020-05-29,,,,,CHADEMO J1772COMBO,US,,,,Public,,public,,,,,,,,,,,,,,,,,,,,
ELEC,HIGHLAND CH EVC-2,27216 Base Line St,,Highland,CA,92346,,888-758-4389,E,,Public,24 hours daily,,,,,,,1,,ChargePoint Network,http://www.chargepoint.com/,GPS,34.120983,-117.210849,2022-09-09,158666,2022-09-09 00:58:42 UTC,,,,2020-06-12,,,,,CHADEMO J1772COMBO,US,,,,Public,,public,,,,,,,,,,,,,,,,,,,,
ELEC,HIGHLAND CH EVC-1,27215 Base Line St,,Highland,CA,92346,,888-758-4389,E,,Public,24 hours daily,,,,,,,1,,ChargePoint Network,http://www.chargepoint.com/,GPS,34.120588,-117.210721,2022-09-09,158667,2022-09-09 00:58:41 UTC,,,,2020-06-12,,,,,CHADEMO J1772COMBO,US,,,,Public,,public,,,,,,,,,,,,,,,,,,,,
ELEC,OCPW-PKGADMN EV4 FAST,313 The City Dr S MANCHESTER,,Orange,CA,92868,,888-758-4389,E,,Public,24 hours daily,,,,,,,1,,ChargePoint Network,http://www.chargepoint.com/,GPS,33.785423,-117.889496,2022-09-09,158673,2022-09-09 00:58:37 UTC,,,,2020-06-12,,,,,CHADEMO J1772COMBO,US,,,,Public,,public,,,,,,,,,,,,,,,,,,,,
ELEC,OCPW-PKGADMN EV7 FAST,601 N Ross St CAS,,Santa Ana,CA,92701,,888-758-4389,E,,Public,24 hours daily,,,,,,,1,,ChargePoint Network,http://www.chargepoint.com/,GPS,33.75003,-117.871669,2022-09-09,158677,2022-09-09 00:58:30 UTC,,,,2020-06-12,,,,,CHADEMO J1772COMBO,US,,,,Public,,public,,,,,,,,,,,,,,,,,,,,
ELEC,H&S ENERGY H&S#20 CHEVRON,1500 Paramount Blvd,,Montebello,CA,90640,,888-758-4389,E,,Public,24 hours daily,,,,,,,1,,ChargePoint Network,http://www.chargepoint.com/,GPS,34.034767,-118.090629,2022-09-09,158679,2022-09-09 00:58:30 UTC,,,,2020-06-12,,,,,CHADEMO J1772COMBO,US,,,,Public,,public,,,,,,,,,,,,,,,,,,,,
ELEC,H&S ENERGY H&S#23 CHEVRON,3190 W Temple Ave,,Pomona,CA,91768,,888-758-4389,E,,Public,24 hours daily,,,,,,,1,,ChargePoint Network,http://www.chargepoint.com/,GPS,34.046069,-117.802596,2022-09-09,158687,2022-09-09 00:58:26 UTC,,,,2020-06-12,,,,,CHADEMO J1772COMBO,US,,,,Public,,public,,,,,,,,,,,,,,,,,,,,
ELEC,RC CIVIC CENTER DCFC CITY HALL,10510 Civic Center Dr,,Rancho Cucamonga,CA,91730,,888-758-4389,E,,Public,24 hours daily,,,,,,,1,,ChargePoint Network,http://www.chargepoint.com/,GPS,34.10372,-117.574477,2022-09-09,158690,2022-09-09 00:58:24 UTC,,,,2020-06-12,,,,,CHADEMO J1772COMBO,US,,,,Public,,public,,,,,,,,,,,,,,,,,,,,
ELEC,OCPW-PKGADMN P7 DC2 FAST,1002 w Santa Ana blvd P7 TWIN TOWERS,,Santa Ana,CA,92703,,888-758-4389,E,,Public,24 hours daily,,,,,,,1,,ChargePoint Network,http://www.chargepoint.com/,GPS,33.747461,-117.877762,2022-09-09,158696,2022-09-09 00:58:16 UTC,,,,2020-06-12,,,,,CHADEMO J1772COMBO,US,,,,Public,,public,,,,,,,,,,,,,,,,,,,,
ELEC,CSG EV OSC DC4,101 W Avenida Vista Hermosa,,San Clemente,CA,92672,,888-758-4389,E,,Public,24 hours daily,,,,,,,1,,ChargePoint Network,http://www.chargepoint.com/,GPS,33.44155,-117.627754,2022-09-09,158699,2022-09-09 00:57:26 UTC,,,,2020-06-12,,,,,CHADEMO J1772COMBO,US,,,,Public,,public,,,,,,,,,,,,,,,,,,,,
ELEC,CITYOFMURRIETA ALPHAL3SENIOR,5 Town Square Murrieta Senior Center,,Murrieta,CA,92562,,888-758-4389,E,,Public,24 hours daily,,,,,,,1,,ChargePoint Network,http://www.chargepoint.com/,GPS,33.55703,-117.21156,2022-09-09,158714,2022-09-09 00:57:47 UTC,,,,2020-06-12,,,,,CHADEMO J1772COMBO,US,,,,Public,,public,,,,,,,,,,,,,,,,,,,,
ELEC,RIVERSIDE HD DCFAST HOG,7688 Indiana Ave,,Riverside,CA,92504,,888-758-4389,E,,Public,24 hours daily,,,,,,,1,,ChargePoint Network,http://www.chargepoint.com/,GPS,33.93215,-117.408104,2022-09-09,158725,2022-09-09 00:57:42 UTC,,,,2020-06-12,,,,,J1772COMBO,US,,,,Public,,public,,,,,,,,,,,,,,,,,,,,
ELEC,G&M OIL CHEVRON #27,14250 Bear Valley Rd,,Victorville,CA,92392,,888-758-4389,E,,Public,24 hours daily,,,,,,,1,,ChargePoint Network,http://www.chargepoint.com/,GPS,34.470993,-117.35262,2022-09-09,158736,2022-09-09 00:57:39 UTC,,,,2020-06-12,,,,,CHADEMO J1772COMBO,US,,,,Public,,public,,,,,,,,,,,,,,,,,,,,
ELEC,G&M OIL CHEVRON #183,18501 Beach Blvd,,Huntington Beach,CA,92648,,888-758-4389,E,,Public,24 hours daily,,,,,,,1,,ChargePoint Network,http://www.chargepoint.com/,GPS,33.693377,-117.989535,2022-09-09,158746,2022-09-09 00:57:33 UTC,,,,2020-06-12,,,,,CHADEMO J1772COMBO,US,,,,Public,,public,,,,,,,,,,,,,,,,,,,,
ELEC,G&M OIL CHEVRON #146,79513 CA-111,,La Quinta,CA,92253,,888-758-4389,E,,Public,24 hours daily,,,,,,,1,,ChargePoint Network,http://www.chargepoint.com/,GPS,33.706766,-116.276949,2022-09-09,158753,2022-09-09 00:57:29 UTC,,,,2020-06-12,,,,,CHADEMO J1772COMBO,US,,,,Public,,public,,,,,,,,,,,,,,,,,,,,
ELEC,G&M OIL CHEVRON #184,6600 N Indian Canyon Dr,,Palm Springs,CA,92262,,888-758-4389,E,,Public,24 hours daily,,,,,,,1,,ChargePoint Network,http://www.chargepoint.com/,GPS,33.902733,-116.544726,2022-09-09,158758,2022-09-09 00:57:24 UTC,,,,2020-06-12,,,,,CHADEMO J1772COMBO,US,,,,Public,,public,,,,,,,,,,,,,,,,,,,,
ELEC,UCSD ECUP2,3683 Voigt Dr,,San Diego,CA,92037,,888-758-4389,E,,Public,24 hours daily,,,,,,,1,,ChargePoint Network,http://www.chargepoint.com/,GPS,32.880642,-117.22124,2022-09-09,158759,2022-09-09 00:57:24 UTC,,,,2020-06-12,,,,,CHADEMO J1772COMBO,US,,,,Public,,public,,,,,,,,,,,,,,,,,,,,
ELEC,G&M OIL CHEVRON #142,12555 Paramount Blvd,,Downey,CA,90242,,888-758-4389,E,,Public,24 hours daily,,,,,,,1,,ChargePoint Network,http://www.chargepoint.com/,GPS,33.924608,-118.151863,2022-09-09,158764,2022-09-09 00:57:22 UTC,,,,2020-06-12,,,,,CHADEMO J1772COMBO,US,,,,Public,,public,,,,,,,,,,,,,,,,,,,,
ELEC,G&M OIL CHEVRON #120,500 S Azusa ave,,Azusa,CA,91702,,888-758-4389,E,,Public,24 hours daily,,,,,,,1,,ChargePoint Network,http://www.chargepoint.com/,GPS,34.114358,-117.907417,2022-09-09,158766,2022-09-09 00:57:19 UTC,,,,2020-06-12,,,,,CHADEMO J1772COMBO,US,,,,Public,,public,,,,,,,,,,,,,,,,,,,,
ELEC,IRVINE COMPANY C COVE DCFC 3,7972 Pacific Coast Hwy,,Newport Beach,CA,92657,,888-758-4389,E,,Public,24 hours daily,,,,,,,1,,ChargePoint Network,http://www.chargepoint.com/,GPS,33.568703,-117.830445,2022-09-09,158773,2022-09-09 00:57:16 UTC,,,,2020-06-12,,,,,CHADEMO J1772COMBO,US,,,,Public,,public,,,,,,,,,,,,,,,,,,,,
ELEC,G&M OIL CHEVRON #182,6972 Warner Ave,,Huntington Beach,CA,92647,,888-758-4389,E,,Public,24 hours daily,,,,,,,1,,ChargePoint Network,http://www.chargepoint.com/,GPS,33.715317,-118.007217,2022-09-09,158774,2022-09-09 00:57:15 UTC,,,,2020-06-12,,,,,CHADEMO J1772COMBO,US,,,,Public,,public,,,,,,,,,,,,,,,,,,,,
ELEC,G&M OIL CHEVRON #143,4991 Long Beach Blvd,,Long Beach,CA,90805,,888-758-4389,E,,Public,24 hours daily,,,,,,,1,,ChargePoint Network,http://www.chargepoint.com/,GPS,33.846247,-118.194201,2022-09-09,158786,2022-09-09 00:57:11 UTC,,,,2020-06-12,,,,,CHADEMO J1772COMBO,US,,,,Public,,public,,,,,,,,,,,,,,,,,,,,
ELEC,G&M OIL CHEVRON #187,17055 Lakewood Blvd,,Bellflower,CA,90706,,888-758-4389,E,,Public,24 hours daily,,,,,,,1,,ChargePoint Network,http://www.chargepoint.com/,GPS,33.878772,-118.14318,2022-09-09,158789,2022-09-09 00:57:10 UTC,,,,2020-06-12,,,,,CHADEMO J1772COMBO,US,,,,Public,,public,,,,,,,,,,,,,,,,,,,,
ELEC,UCSD 3-5 OSLER DCFC,Osler Parking Structure  Osler Lane,,San Diego,CA,92092,,888-758-4389,E,,Public,24 hours daily,,,,,,,1,,ChargePoint Network,http://www.chargepoint.com/,GPS,32.873737,-117.237719,2022-09-09,158792,2022-09-09 00:57:08 UTC,,,,2020-06-12,,,,,CHADEMO J1772COMBO,US,,,,Public,,public,,,,,,,,,,,,,,,,,,,,
ELEC,7-ELEVEN 20101 POMNA DC1,808 N. Indian Hill Blvd.,,Pomona,CA,91767,,888-758-4389,E,,Public,24 hours daily,,,,,,,1,,ChargePoint Network,http://www.chargepoint.com/,GPS,34.067274,-117.719057,2022-09-09,158804,2022-09-09 00:56:57 UTC,,,,2020-06-12,,,,,CHADEMO J1772COMBO,US,,,,Public,,public,,,,,,,,,,,,,,,,,,,,
ELEC,GLOBALPARTNERS GG03,8901 Garden Grove Blvd,,Garden Grove,CA,92841,,888-758-4389,E,,Public,24 hours daily,,,,,,,1,,ChargePoint Network,http://www.chargepoint.com/,GPS,33.774456,-117.976898,2022-09-09,158818,2022-09-09 00:56:49 UTC,,,,2020-06-12,,,,,CHADEMO J1772COMBO,US,,,,Public,,public,,,,,,,,,,,,,,,,,,,,
ELEC,GLOBALPARTNERS GG04,8897 Garden Grove Blvd,,Garden Grove,CA,92844,,888-758-4389,E,,Public,24 hours daily,,,,,,,1,,ChargePoint Network,http://www.chargepoint.com/,GPS,33.774421,-117.9769,2022-09-09,158819,2022-09-09 00:56:49 UTC,,,,2020-06-12,,,,,CHADEMO J1772COMBO,US,,,,Public,,public,,,,,,,,,,,,,,,,,,,,
ELEC,DC CORRIDOR CHEVRON SR DC1,879 Hopper Ave,,Santa Rosa,CA,95403,,888-758-4389,E,,Public,24 hours daily,,,,,,,1,,ChargePoint Network,http://www.chargepoint.com/,GPS,38.480099,-122.736375,2022-09-09,158830,2022-09-09 00:56:42 UTC,,,,2020-06-12,,,,,CHADEMO J1772COMBO,US,,,,Public,,public,,,,,,,,,,,,,,,,,,,,
ELEC,CAL STATE LA DCFC2,1968-1982 Paseo Rancho Castilla,,Los Angeles,CA,90032,,888-758-4389,E,,Public,24 hours daily,,,,,,,1,,ChargePoint Network,http://www.chargepoint.com/,GPS,34.065728,-118.170502,2022-09-09,158833,2022-09-09 00:56:42 UTC,,,,2020-06-12,,,,,CHADEMO J1772COMBO,US,,,,Public,,public,,,,,,,,,,,,,,,,,,,,
ELEC,H&S ENERGY H&S#25 CHEVRON1,700 N Brookhurst St,,Anaheim,CA,92801,,888-758-4389,E,,Public,24 hours daily,,,,,,,1,,ChargePoint Network,http://www.chargepoint.com/,GPS,33.840288,-117.958588,2022-09-09,158845,2022-09-09 00:56:36 UTC,,,,2020-06-12,,,,,CHADEMO J1772COMBO,US,,,,Public,,public,,,,,,,,,,,,,,,,,,,,
ELEC,HARLEY DCFAST HOG,7601 Redwood Dr,,Cotati,CA,94931,,888-758-4389,E,,Public,24 hours daily,,,,,,,1,,ChargePoint Network,http://www.chargepoint.com/,GPS,38.338276,-122.71434,2022-09-09,158882,2022-09-09 00:56:15 UTC,,,,2020-06-12,,,,,J1772COMBO,US,,,,Public,,public,,,,,,,,,,,,,,,,,,,,
ELEC,H&S ENERGY H&S#42 CHEVRON2,1105 Santa Anita Ave,,South El Monte,CA,91733,,888-758-4389,E,,Public,24 hours daily,,,,,,,1,,ChargePoint Network,http://www.chargepoint.com/,GPS,34.0414,-118.049831,2022-09-09,158892,2022-09-09 00:56:13 UTC,,,,2020-06-12,,,,,CHADEMO J1772COMBO,US,,,,Public,,public,,,,,,,,,,,,,,,,,,,,
ELEC,LIVERMORE H-D DCFAST HOG,7576 Southfront Rd,,Livermore,CA,94551,,888-758-4389,E,,Public,24 hours daily,,,,,,,1,,ChargePoint Network,http://www.chargepoint.com/,GPS,37.71589,-121.70398,2022-09-09,158899,2022-09-09 00:56:10 UTC,,,,2020-06-12,,,,,J1772COMBO,US,,,,Public,,public,,,,,,,,,,,,,,,,,,,,
ELEC,CC STATION 1 CPE250-3,24351 El Toro Rd,,Laguna Woods,CA,92637,,888-758-4389,E,,Public,24 hours daily,,,,,,,1,,ChargePoint Network,http://www.chargepoint.com/,GPS,33.610613,-117.731237,2022-09-09,158903,2022-09-09 00:56:09 UTC,,,,2020-06-12,,,,,CHADEMO J1772COMBO,US,,,,Public,,public,,,,,,,,,,,,,,,,,,,,
ELEC,H-D CHARGER DCFAST HOG,1000 Arden Way,,Sacramento,CA,95815,,888-758-4389,E,,Public,24 hours daily,,,,,,,1,,ChargePoint Network,http://www.chargepoint.com/,GPS,38.605907,-121.44319,2022-09-09,158905,2022-09-09 00:56:08 UTC,,,,2020-06-12,,,,,J1772COMBO,US,,,,Public,,public,,,,,,,,,,,,,,,,,,,,
ELEC,H&S ENERGY H&S#49 CHEVRON1,3085 E La Palma Ave,,Anaheim,CA,92806,,888-758-4389,E,,Public,24 hours daily,,,,,,,1,,ChargePoint Network,http://www.chargepoint.com/,GPS,33.851517,-117.85781,2022-09-09,158923,2022-09-09 00:55:55 UTC,,,,2020-06-12,,,,,CHADEMO J1772COMBO,US,,,,Public,,public,,,,,,,,,,,,,,,,,,,,
ELEC,HBHARLEY1 DCFAST HOG,15080 Goldenwest Cir,,Westminster,CA,92683,,888-758-4389,E,,Public,Mon 10:00am - 6:00pm; Tue 10:00am - 6:00pm; Wed 10:00am - 6:00pm; Thu 10:00am - 6:00pm; Fri 10:00am - 6:00pm; Sat 9:00am - 5:00pm; Sun 10:00am - 4:00pm,,,,,,,1,,ChargePoint Network,http://www.chargepoint.com/,GPS,33.742502,-118.001155,2022-09-09,158933,2022-09-09 00:55:50 UTC,,,,2020-06-12,,,,,J1772COMBO,US,,,,Public,,public,,,,,,,,,,,,,,,,,,,,
ELEC,EAGLES NEST HD DCFAST HOG,13900 Harlan Rd,,Lathrop,CA,95330,,888-758-4389,E,,Public,Mon 9:00am - 6:00pm; Tue 9:00am - 6:00pm; Wed 9:00am - 6:00pm; Thu 9:00am - 6:00pm; Fri 9:00am - 6:00pm; Sat 9:00am - 5:00pm; Sun 10:00am - 4:00pm,,,,,,,1,,ChargePoint Network,http://www.chargepoint.com/,GPS,37.832126,-121.286684,2022-09-09,158941,2022-09-09 00:55:47 UTC,,,,2020-06-12,,,,,J1772COMBO,US,,,,Public,,public,,,,,,,,,,,,,,,,,,,,
ELEC,LAHD DCFAST HOG,2635 W Orangethorpe Ave,,Fullerton,CA,92833,,888-758-4389,E,,Public,24 hours daily,,,,,,,1,,ChargePoint Network,http://www.chargepoint.com/,GPS,33.859413,-117.97493,2022-09-09,158948,2022-09-09 00:55:46 UTC,,,,2020-06-12,,,,,J1772COMBO,US,,,,Public,,public,,,,,,,,,,,,,,,,,,,,
ELEC,OAKLAND H-D DCFAST HOG,151 Hegenberger Rd,,Oakland,CA,94621,,888-758-4389,E,,Public,Tue 10:00am - 6:00pm; Wed 10:00am - 6:00pm; Thu 10:00am - 6:00pm; Fri 10:00am - 6:00pm; Sat 9:30am - 5:00pm; Sun 11:00am - 5:00pm,,,,,,,1,,ChargePoint Network,http://www.chargepoint.com/,GPS,37.73081,-122.200066,2022-09-09,158963,2022-09-09 00:55:40 UTC,,,,2020-06-12,,,,,J1772COMBO,US,,,,Public,,public,,,,,,,,,,,,,,,,,,,,
ELEC,ROCKLINEV1 DCFAST HOG,4401 Granite Dr,,Rocklin,CA,95677,,888-758-4389,E,,Public,24 hours daily,,,,,,,1,,ChargePoint Network,http://www.chargepoint.com/,GPS,38.798412,-121.212295,2022-09-09,158968,2022-09-09 00:55:38 UTC,,,,2020-06-12,,,,,J1772COMBO,US,,,,Public,,public,,,,,,,,,,,,,,,,,,,,
ELEC,LINCOLN4141 DCFAST HOG,4141 Lincoln Blvd,,Marina del Rey,CA,90292,,888-758-4389,E,,Public,24 hours daily,,,,,,,1,,ChargePoint Network,http://www.chargepoint.com/,GPS,33.98724,-118.445114,2022-09-09,158974,2022-09-09 00:55:37 UTC,,,,2020-06-12,,,,,J1772COMBO,US,,,,Public,,public,,,,,,,,,,,,,,,,,,,,
ELEC,BP CITY HALL COMM CNTR DC 1,7871 Pinchot Ct,,Buena Park,CA,90621,,888-758-4389,E,,Public,24 hours daily,,,,,,,1,,ChargePoint Network,http://www.chargepoint.com/,GPS,33.863252,-117.995708,2022-09-09,158995,2022-09-09 00:55:26 UTC,,,,2020-06-12,,,,,CHADEMO J1772COMBO,US,,,,Public,,public,,,,,,,,,,,,,,,,,,,,
ELEC,DC CORRIDOR LAYTONVILLE DC2,45020 US-101,,Laytonville,CA,95454,,888-758-4389,E,,Public,24 hours daily,,,,,,,1,,ChargePoint Network,http://www.chargepoint.com/,GPS,39.689208,-123.483252,2022-09-09,159021,2022-09-09 00:55:16 UTC,,,,2020-06-12,,,,,CHADEMO J1772COMBO,US,,,,Public,,public,,,,,,,,,,,,,,,,,,,,
ELEC,DC CORRIDOR LAYTONVILLE DC1,45020 US-101,,Laytonville,CA,95454,,888-758-4389,E,,Public,24 hours daily,,,,,,,1,,ChargePoint Network,http://www.chargepoint.com/,GPS,39.689199,-123.483241,2022-09-09,159026,2022-09-09 00:55:13 UTC,,,,2020-06-12,,,,,CHADEMO J1772COMBO,US,,,,Public,,public,,,,,,,,,,,,,,,,,,,,
ELEC,AV HARLEY DCFAST HOG,1759 W Ave J 12,,Lancaster,CA,93534,,888-758-4389,E,,Public,24 hours daily,,,,,,,1,,ChargePoint Network,http://www.chargepoint.com/,GPS,34.680115,-118.16331,2022-09-09,159028,2022-09-09 00:55:13 UTC,,,,2020-06-12,,,,,J1772COMBO,US,,,,Public,,public,,,,,,,,,,,,,,,,,,,,
ELEC,SAN DIEGO FAST CHARGER 02,2350 Fleetwood Dr,,Riverside,CA,92509,,888-758-4389,E,,Public,24 hours daily,,,,,,,1,,ChargePoint Network,http://www.chargepoint.com/,GPS,34.016527,-117.380306,2022-09-09,159073,2022-09-09 00:54:45 UTC,,,,2020-06-12,,,,,CHADEMO J1772COMBO,US,,,,Public,,public,,,,,,,,,,,,,,,,,,,,
ELEC,LONG BEACH CITY PLACE B DC,50 E 5th St,,Long Beach,CA,90802,,888-758-4389,E,,Public,24 hours daily,,,,,,,1,,ChargePoint Network,http://www.chargepoint.com/,GPS,33.772562,-118.191291,2022-09-09,159082,2022-09-09 00:54:39 UTC,,,,2020-06-12,,,,,CHADEMO J1772COMBO,US,,,,Public,,public,,,,,,,,,,,,,,,,,,,,
ELEC,AUTONATION CHEV AUTONATION CHEV,23649 Valencia Blvd,,Santa Clarita,CA,91355,,888-758-4389,E,,Public,24 hours daily,,,,,,,1,,ChargePoint Network,http://www.chargepoint.com/,GPS,34.417218,-118.550368,2022-09-09,159166,2022-09-09 00:54:00 UTC,,,,2020-06-12,,,,,J1772COMBO,US,,,,Public,,public,,,,,,,,,,,,,,,,,,,,
ELEC,IRVINE COMPANY 950 DCFC 1,950 Spectrum Center Dr,,Irvine,CA,92618,,888-758-4389,E,,Public,24 hours daily,,,,,,,1,,ChargePoint Network,http://www.chargepoint.com/,GPS,33.647734,-117.739483,2022-09-09,159172,2022-09-09 00:53:53 UTC,,,,2020-06-12,,,,,CHADEMO J1772COMBO,US,,,,Public,,public,,,,,,,,,,,,,,,,,,,,
ELEC,DC CORRIDOR CHEVRON C. DC2,25032 W Dorris Ave,,Coalinga,CA,93210,,888-758-4389,E,,Public,24 hours daily,,,,,,,1,,ChargePoint Network,http://www.chargepoint.com/,GPS,36.2548,-120.248697,2022-09-09,159225,2022-09-09 00:53:39 UTC,,,,2020-06-12,,,,,CHADEMO J1772COMBO,US,,,,Public,,public,,,,,,,,,,,,,,,,,,,,
ELEC,BRISBANEVILLAGE BRISBANEVILLAGE,108 Old County Rd,,Brisbane,CA,94005,,888-758-4389,E,,Public,24 hours daily,,,,,,,1,,ChargePoint Network,http://www.chargepoint.com/,GPS,37.68571,-122.399554,2022-09-09,159727,2022-09-09 00:49:56 UTC,,,,2020-06-12,,,,,CHADEMO J1772COMBO,US,,,,Public,,public,,,,,,,,,,,,,,,,,,,,
ELEC,CNTYOFRIVERSIDE MONROE PK DC,44199 Monroe St,,Indio,CA,92201,,888-758-4389,E,,Public,24 hours daily,,,,,,,1,,ChargePoint Network,http://www.chargepoint.com/,GPS,33.728299,-116.234539,2022-09-09,159921,2022-09-09 00:48:30 UTC,,,,2020-06-12,,,,,J1772COMBO,US,,,,Public,,public,,,,,,,,,,,,,,,,,,,,
ELEC,BMW SANTA MARIA BMWSM DC FAST 1,2150 South College Drive,,Santa Maria,CA,93455,,888-758-4389,E,,Public,24 hours daily,,,,,,,1,,ChargePoint Network,http://www.chargepoint.com/,GPS,34.921789,-120.423734,2022-09-09,159937,2022-09-09 00:48:25 UTC,,,,2020-06-12,,,,,J1772COMBO,US,,,,Public,,public,,,,,,,,,,,,,,,,,,,,
ELEC,VISITOR CENTER NASAVISITORCTR5,NASA Pkwy,,Mountain View,CA,94043,,888-758-4389,E,,Public,24 hours daily,,,,,,,1,,ChargePoint Network,http://www.chargepoint.com/,GPS,37.409166,-122.063557,2022-09-09,160225,2022-09-09 00:46:50 UTC,,,,2020-06-12,,,,,CHADEMO J1772COMBO,US,,,,Public,,public,,,,,,,,,,,,,,,,,,,,
ELEC,VISITOR CENTER NASAVISITORCTR3,Nasa Pkwy,,Mountain View,CA,94043,,888-758-4389,E,,Public,24 hours daily,,,,,,,1,,ChargePoint Network,http://www.chargepoint.com/,GPS,37.409294,-122.063492,2022-09-09,160227,2022-09-09 00:46:50 UTC,,,,2020-06-12,,,,,CHADEMO J1772COMBO,US,,,,Public,,public,,,,,,,,,,,,,,,,,,,,
ELEC,COC EV CHARGING CORPORATE YARD1,735 Public Safety Way,,Corona,CA,92880,,888-758-4389,E,,Public,24 hours daily,,,,,,,1,,ChargePoint Network,http://www.chargepoint.com/,GPS,33.888251,-117.573431,2022-09-09,160368,2022-09-09 00:46:03 UTC,,,,2020-06-12,,,,,CHADEMO J1772COMBO,US,,,,Public,,public,,,,,,,,,,,,,,,,,,,,
ELEC,CNTYOFRIVERSIDE DPSS ADM DC,4060 County Cir Dr,,Riverside,CA,92503,,888-758-4389,E,,Public,24 hours daily,,,,,,,1,,ChargePoint Network,http://www.chargepoint.com/,GPS,33.916903,-117.461539,2022-09-09,160479,2022-09-09 00:45:19 UTC,,,,2020-06-12,,,,,J1772COMBO,US,,,,Public,,public,,,,,,,,,,,,,,,,,,,,
ELEC,TEAM VOLKSWAGEN DC FAST,25115 Mission Blvd,,Hayward,CA,94544,,888-758-4389,E,,Public,24 hours daily,,,,,,,1,,ChargePoint Network,http://www.chargepoint.com/,GPS,37.65777,-122.073098,2022-09-09,160535,2022-09-09 00:44:58 UTC,,,,2020-06-12,,,,,J1772COMBO,US,,,,Public,,public,,,,,,,,,,,,,,,,,,,,
ELEC,DIRITO BROTHERS DC FAST 1,2020 N Main St,,Walnut Creek,CA,94596,,888-758-4389,E,,Public,24 hours daily,,,,,,,1,,ChargePoint Network,http://www.chargepoint.com/,GPS,37.907396,-122.063988,2022-09-09,160537,2022-09-09 00:44:58 UTC,,,,2020-06-12,,,,,J1772COMBO,US,,,,Public,,public,,,,,,,,,,,,,,,,,,,,
ELEC,COC EV CHARGING CITY HALL 1,324-374 S Vicentia Ave,,Corona,CA,92882,,888-758-4389,E,,Public,24 hours daily,,,,,,,1,,ChargePoint Network,http://www.chargepoint.com/,GPS,33.878928,-117.575062,2022-09-09,160557,2022-09-09 00:44:44 UTC,,,,2020-06-12,,,,,CHADEMO J1772COMBO,US,,,,Public,,public,,,,,,,,,,,,,,,,,,,,
ELEC,TOWNOFDANVILLE DC EXPRESS 01,400 Front St,,Danville,CA,94526,,888-758-4389,E,,Public,24 hours daily,,,,,,,1,,ChargePoint Network,http://www.chargepoint.com/,GPS,37.82047,-121.995467,2022-09-09,160558,2022-09-09 00:44:44 UTC,,,,2020-06-12,,,,,CHADEMO J1772COMBO,US,,,,Public,,public,,,,,,,,,,,,,,,,,,,,
ELEC,HQ STATION 5 SFS LEVEL 3,9807 Bell Ranch Dr,,Santa Fe Springs,CA,90670,,888-758-4389,E,,Public,24 hours daily,,,,,,,1,,ChargePoint Network,http://www.chargepoint.com/,GPS,33.949654,-118.06417,2022-09-09,160559,2022-09-09 00:44:44 UTC,,,,2020-06-12,,,,,CHADEMO J1772COMBO,US,,,,Public,,public,,,,,,,,,,,,,,,,,,,,
ELEC,TORRANCE WALTERIA DC,3855 W 242nd St,,Torrance,CA,90505,,888-758-4389,E,,Public,24 hours daily,,,,,,,1,,ChargePoint Network,http://www.chargepoint.com/,GPS,33.804529,-118.353365,2022-09-09,160568,2022-09-09 00:44:40 UTC,,,,2020-06-12,,,,,CHADEMO J1772COMBO,US,,,,Public,,public,,,,,,,,,,,,,,,,,,,,
ELEC,TORRANCE MCMASTERPARK DC,17537 Yukon Ave,,Torrance,CA,90504,,888-758-4389,E,,Public,24 hours daily,,,,,,,1,,ChargePoint Network,http://www.chargepoint.com/,GPS,33.871696,-118.335329,2022-09-09,160569,2022-09-09 00:44:40 UTC,,,,2020-06-12,,,,,CHADEMO J1772COMBO,US,,,,Public,,public,,,,,,,,,,,,,,,,,,,,
ELEC,SANTA MONICA VW DC FAST,2440 Santa Monica Blvd,,Santa Monica,CA,90404,,888-758-4389,E,,Public,24 hours daily,,,,,,,1,,ChargePoint Network,http://www.chargepoint.com/,GPS,34.031492,-118.475163,2022-09-09,160575,2022-09-09 00:44:39 UTC,,,,2020-06-12,,,,,J1772COMBO,US,,,,Public,,public,,,,,,,,,,,,,,,,,,,,
ELEC,TORRANCE CIVIC CENTER DC,3301 Torrance Blvd,,Torrance,CA,90503,,888-758-4389,E,,Public,24 hours daily,,,,,,,1,,ChargePoint Network,http://www.chargepoint.com/,GPS,33.838315,-118.343379,2022-09-09,160606,2022-09-09 00:44:32 UTC,,,,2020-06-12,,,,,CHADEMO J1772COMBO,US,,,,Public,,public,,,,,,,,,,,,,,,,,,,,
ELEC,WINN VOLKSWAGEN DC COMBO LV III,39695 Balentine Dr,,Newark,CA,94560,,888-758-4389,E,,Public,24 hours daily,,,,,,,1,,ChargePoint Network,http://www.chargepoint.com/,GPS,37.522801,-121.996221,2022-09-09,160729,2022-09-09 00:43:51 UTC,,,,2020-06-12,,,,,J1772COMBO,US,,,,Public,,public,,,,,,,,,,,,,,,,,,,,
